,Name,Addr,lat,lng
0,이디야커피랩,"서울 강남구 논현로 636 이디야빌딩 1,2층",37.5104556,127.0328766
1,이디야커피 신촌역점,서울 서대문구 신촌로 87-20 2층,37.5564288,126.9364287
2,이디야커피 홍대중앙점,서울 마포구 양화로 124,37.5542126,126.9207762
3,이디야커피 오목교대학학원점,서울 양천구 오목로 319,37.5250374,126.8730535
4,이디야커피 역삼플래티넘점,서울 강남구 테헤란로4길 46 쌍용플래티넘비상가 108호,37.4953323,127.0303725
5,이디야커피 종로3가점,서울 종로구 종로 126,37.5700629,126.9915219
6,이디야커피 청담역점,서울 강남구 삼성로 721,37.5200294,127.0491395
7,이디야커피 마포구청점,서울 마포구 월드컵로 196,37.5647641,126.9027386
8,이디야커피 광화문점,서울 종로구 세종대로23길 15,37.571457,126.9756366
9,이디야커피 강서구청점,서울 강서구 화곡로 292,37.5502707,126.848761
10,이디야커피 압구정로데오역점,서울 강남구 선릉로161길 20 1층 102호,37.5274922,127.0388195
11,이디야커피 연신내역점,서울 은평구 통일로 855-9,37.618854,126.9198697
12,이디야커피 여의나루역점,서울 영등포구 여의나루로 113 공작상가 2층,37.52601629999999,126.9307571
13,이디야커피 고척사거리점,서울 구로구 고척로 228-6,37.5057472,126.8582376
14,이디야커피 학동역점,서울 강남구 학동로 219 2층,37.51496059999999,127.0331072
15,이디야커피 영등포본동점,서울 영등포구 영신로19길 15,37.5138185,126.9060085
16,이디야커피 숙대입구역점,서울 용산구 한강대로 289 2층,37.5440208,126.9719508
17,이디야커피 태릉입구역점,서울 노원구 공릉로 105,37.6195756,127.077871
18,이디야커피 상왕십리역점,서울 성동구 무학봉15길 27 1층,37.5636352,127.0301592
19,이디야커피 서울숲역점,서울 성동구 왕십리로 96-1,37.5462569,127.044874
20,이디야커피 신논현역점,서울 서초구 강남대로79길 10,37.5052523,127.0231968
21,이디야커피 용두동사거리점,서울 동대문구 왕산로 68 103호,37.5774477,127.0308778
22,이디야커피 강남구청역아이티웨딩점,서울 강남구 학동로 338 강남파라곤 1층,37.5165785,127.0403418
23,이디야커피 홍대청기와점,서울 마포구 월드컵북로 7,37.5580081,126.9149565
24,이디야커피 면목본동점,서울 중랑구 면목로 370 1~2층,37.5849094,127.0885874
25,이디야커피 동대문역점,서울 종로구 율곡로 286 야드인빌딩 2층,37.5718325,127.0081491
26,이디야커피 신대방역점,서울 관악구 난곡로 368 2층,37.48680909999999,126.9137478
27,이디야커피 마포공덕역점,"서울 마포구 새창로 6 1, 2층",37.5406631,126.953643
28,이디야커피 도산사거리점,서울 강남구 언주로148길 14 나동 1층 107호,37.5202946,127.0359457
29,이디야커피 봉천역점,서울 관악구 남부순환로 1725,37.4826457,126.9418783
30,이디야커피 백련산아이파크점,서울 은평구 응암로 264,37.5952388,126.9188557
31,이디야커피 배봉초교사거리점,서울 동대문구 답십리로63길 131,37.5784698,127.069321
32,이디야커피 대학로점,서울 종로구 대학로10길 17,37.5820564,127.0031655
33,이디야커피 답십리역점,서울 동대문구 천호대로 265,37.568254,127.0513523
34,이디야커피 북한산점,서울 강북구 4.19로 85,37.6396099,127.0256575
35,이디야커피 총신대입구역점,서울 동작구 동작대로 119-1 2층,37.487267,126.9818565
36,이디야커피 동원사거리점,서울 중랑구 겸재로 240 102호,37.589608,127.0941645
37,이디야커피 연남동점,서울 서대문구 연희로 42 1층,37.5623305,126.9278489
38,이디야커피 마곡퀸즈파크9점,서울 강서구 공항대로 247 퀸즈파크나인 4층 409호,37.5533338,126.8510294
39,이디야 송파풍납점,서울 송파구 강동대로9길 17-1,37.5280621,127.11653
40,이디야커피 신촌기차역점,서울 서대문구 신촌역로 35,37.5589365,126.9414455
41,이디야커피 동교중앙점,서울 마포구 동교로27길 8,37.5587392,126.9230221
42,이디야커피 여의도역점,서울 영등포구 의사당대로 108 아일렉스상가 지하1층,37.5210236,126.9240116
43,이디야커피 홍은사거리점,서울 서대문구 통일로 510,37.5932986,126.9412919
44,이디야커피 공덕점,서울 마포구 마포대로8길 15,37.5463856,126.9540496
45,이디야커피 중곡중앙점,서울 광진구 능동로 330,37.5588993,127.0807302
46,이디야커피 왕십리역점,서울 성동구 왕십리로 309,37.5612833,127.0345304
47,이디야커피 가락중앙점,서울 송파구 송이로 87 1층,37.4982843,127.1207781
48,이디야커피 남부터미널점,서울 서초구 효령로60길 15,37.4846913,127.0188535
49,이디야커피 서울여대점,서울 노원구 노원로 3,37.6218823,127.0865752
50,이디야커피 신상도초교점,서울 동작구 양녕로 183,37.497676,126.9431874
51,이디야커피 북창동점,서울 중구 남대문로1길 57-1,37.5636058,126.9775563
52,이디야커피 홍익대점,서울 마포구 홍익로 10,37.553716,126.9236241
53,이디야커피 용산효창점,서울 용산구 효창원로66길 2,37.5405259,126.9621825
54,이디야커피 석촌백제점,서울 송파구 백제고분로39길 15 삼경빌딩 1층,37.5056259,127.1044412
55,이디야커피 대림역점,서울 영등포구 도림로31길 2,37.4924907,126.8959161
56,이디야커피 약수역점,서울 중구 동호로 186-13,37.5545654,127.0114859
57,이디야커피 석계중앙점,서울 성북구 화랑로40길 61 1층,37.6130719,127.0627789
58,이디야커피 명동역점,서울 중구 퇴계로 103,37.5608361,126.9832037
59,이디야커피 영등포중앙점,서울 영등포구 영중로 37,37.5193148,126.9046511
60,이디야커피 사당점,서울 동작구 동작대로 45,37.4971831,126.9815334
61,이디야커피 고척스카이돔점,서울 구로구 경인로 397,37.49777660000001,126.8637523
62,이디야커피 삼성동점,서울 강남구 테헤란로88길 10 신안메트로칸상가1층,37.5068213,127.0593799
63,이디야커피 선릉역점,서울 강남구 테헤란로 332 HJ타워 1층,37.50383619999999,127.0481703
64,이디야커피 서일중앙점,서울 중랑구 용마산로 394 1층 1호,37.5866117,127.0955358
65,이디야커피 삼각지점,서울 용산구 한강대로 138 1층,37.5314076,126.9704415
66,이디야커피 사당중앙점,서울 관악구 과천대로 951,37.475496,126.9812655
67,이디야커피 장한평역점,서울 성동구 천호대로 426,37.560746,127.0662025
68,이디야커피 동서울터미널점,서울 광진구 강변역로4길 34 강변현대하이엘 109호,37.5340964,127.0922371
69,이디야커피 합정역사거리점,서울 마포구 독막로2길 5 1층,37.548217,126.914866
70,이디야커피 역삼점,서울 강남구 논현로72길 13,37.49579,127.0405163
71,이디야커피 신사역점,서울 강남구 압구정로2길 62 1층,37.5177352,127.0214289
72,이디야커피 서울대중앙점,서울 관악구 남부순환로216길 2,37.4813377,126.9489838
73,이디야커피 망원중앙점,서울 마포구 월드컵로 147,37.56075999999999,126.905464
74,이디야커피 응암오거리점,서울 은평구 응암로 211,37.5908628,126.9171141
75,이디야커피 합정동점,서울 마포구 양화로6길 90 1층,37.5481933,126.919058
76,이디야커피 청량리점,서울 동대문구 왕산로 225,37.5820032,127.047128
77,이디야커피 성산점,서울 마포구 월드컵북로 137,37.5647835,126.9116386
78,이디야커피 천호로데오점,서울 강동구 천호대로 1027,37.5381679,127.1262834
79,이디야커피 수락산역점,서울 노원구 동일로 1689,37.6790818,127.0549275
80,이디야커피 광희동점,서울 중구 마른내로 165-1,37.5645872,127.006493
81,이디야커피 삼성한전점,서울 강남구 테헤란로107길 11,37.5103908,127.0650442
82,이디야커피 동대문점,서울 중구 을지로43길 38,37.5676676,127.0077516
83,이디야커피 도봉산점,서울 도봉구 도봉산길 18 1층,37.6865358,127.0450643
84,이디야커피 노들점,서울 동작구 노량진로 200 1층,37.5128665,126.947914
85,이디야커피 서교동점,서울 마포구 와우산로29길 70 2층,37.5563162,126.9265746
86,이디야커피 망우중앙점,서울 중랑구 용마산로115길 109,37.5975871,127.0943385
87,이디야커피 당산중앙점,서울 영등포구 당산로 159 1층,37.5288079,126.8975566
88,이디야커피 발산역점,서울 강서구 공항대로 280,37.5579802,126.8383984
89,이디야커피 신림중앙점,서울 관악구 관천로 52,37.4842993,126.9266142
90,이디야커피 북가좌동점,서울 서대문구 증가로 257,37.5834139,126.9115259
91,이디야커피 방이역점,서울 송파구 위례성대로18길 32,37.5095235,127.1247104
92,이디야커피 고덕그라시움후문점,서울 강동구 동남로82길 121 1층,37.5603577,127.1636874
93,이디야커피 건대역점,서울 광진구 아차산로 229 한림타워 101호,37.5407618,127.0690169
94,이디야커피 도봉역점,서울 도봉구 도봉로 823,37.6778789,127.0447434
95,이디야커피 압구정점,서울 강남구 논현로167길 16 106호,37.5247446,127.0268978
96,이디야커피 신정역점,서울 양천구 오목로 155,37.5249251,126.854642
97,이디야커피 당산역점,서울 영등포구 당산로 222 당산디오빌 103-4호,37.5332974,126.9022397
98,이디야커피 신림난곡점,서울 관악구 난곡로 197,37.47253,126.9189265
99,이디야커피 마곡중앙점,서울 강서구 마곡중앙6로 66 퀸즈파크텐 1층,37.5602518,126.8332592
100,이디야커피 응암중앙점,서울 은평구 응암로 183,37.5883944,126.9165713
101,이디야커피 수유역점,서울 강북구 도봉로 355,37.6393061,127.0266927
102,이디야커피 서울고속버스터미널점,서울 서초구 신반포로 194 1층,37.5054942,127.006719
103,이디야커피 건대로데오점,서울 광진구 아차산로30길 8,37.540361,127.0675997
104,이디야커피 시청점,서울 중구 세종대로20길 23,37.5671101,126.9787241
105,이디야커피 숭실대점,서울 동작구 사당로 2,37.4901754,126.9630976
106,이디야커피 노원역2호점,서울 노원구 상계로 64 가동 1층 1호,37.6555926,127.0623312
107,이디야커피 오류남부점,서울 구로구 오류로8길 65,37.4926091,126.8437777
108,이디야 등촌중앙점,서울 강서구 등촌로 67 컴스웨이빌딩 1층,37.5360455,126.8631085
109,이디야커피 가산오거리점,서울 금천구 가산로 155 케이디에스빌딩,37.4813577,126.880871
110,이디야커피 시흥대로점,서울 금천구 시흥대로 476,37.4759634,126.8990626
111,이디야커피 보라매공원점,서울 동작구 여의대방로 90,37.496767,126.9166468
112,이디야커피 신월5동점,서울 양천구 화곡로 50 2층,37.5391278,126.8274379
113,이디야커피 송파동점,서울 송파구 백제고분로41길 5,37.5066981,127.1083724
114,이디야커피 개봉현대점,서울 구로구 개봉로 69 2층,37.4918637,126.8555982
115,이디야커피 명지대점,서울 서대문구 거북골로 33,37.5794201,126.9240523
116,이디야커피 오류북부역점,서울 구로구 경인로20길 6,37.4899352,126.8318832
117,이디야커피 한티역점,서울 강남구 도곡로69길 8,37.49790960000001,127.0561038
118,이디야커피 강남대치점,서울 강남구 역삼로 415 성진빌딩 지상1층,37.482491,127.0619082
119,이디야커피 역촌동점,서울 은평구 갈현로 82,37.6052307,126.9106701
120,이디야커피 혜화역점,서울 종로구 창경궁로 258-15,37.5835658,127.0006307
121,이디야커피 까치산로점,서울 강서구 까치산로 182,37.5533329,126.853912
122,이디야커피 용산중앙점,서울 용산구 한강대로 52-1,37.5253759,126.9646641
123,이디야커피 옥수역점,서울 성동구 한림말5길 9,37.5419719,127.0167024
124,이디야커피 난곡사거리점,서울 관악구 남부순환로 1444,37.4808887,126.9112443
125,이디야커피 충정로역점,서울 중구 중림로 10,37.5581419,126.9652488
126,이디야커피 한강공원로점,서울 마포구 망원로 21 1층,37.5563164,126.8993901
127,이디야커피 하계을지점,서울 노원구 공릉로 326,37.6358505,127.0711596
128,이디야커피 수유사거리점,서울 강북구 덕릉로 82 제네스타워 1층,37.6346285,127.0239971
129,이디야커피 길동사거리점,서울 강동구 천호대로 1132,37.5340178,127.1369677
130,이디야커피 동묘역점,서울 종로구 종로 354 1층,37.5730638,127.016776
131,이디야커피 구파발역점,서울 은평구 진관2로 29-21 드림스퀘어빌딩 115호,37.6361626,126.9198605
132,이디야커피 송파잠실점,서울 송파구 삼전로 95,37.5069289,127.0898316
133,이디야커피 양재중앙점,서울 서초구 강남대로 221,37.4835322,127.0342247
134,이디야커피 iBK고객센터점,서울 용산구 한남대로 72,37.5350224,127.0070392
135,이디야커피 올림픽북문점,서울 강동구 성안로 7,37.5244902,127.1288855
136,이디야커피 삼전역점,서울 송파구 백제고분로 263,37.5027433,127.0957873
137,이디야커피 신내동점,서울 중랑구 봉화산로 215,37.6076181,127.0965284
138,이디야커피 청룡중앙점,서울 관악구 쑥고개로 80,37.47917169999999,126.9452559
139,이디야커피 신림패션문화점,서울 관악구 봉천로6길 24,37.4885801,126.9254188
140,이디야커피 영등포구청점,서울 영등포구 당산로 110 서울빌딩 104,37.5347874,126.9032
141,이디야커피 연세대점,서울 서대문구 연세로12길 10,37.5588209,126.9375073
142,이디야커피 고대개운점,서울 성북구 개운사길 30,37.5876534,127.0294038
143,이디야커피 대청역점,서울 강남구 개포로109길 34,37.4941735,127.0776294
144,이디야커피 동교동점,서울 서대문구 신촌로 5,37.5586394,126.9276992
145,이디야커피 성산중앙점,서울 마포구 성미산로 78,37.5618931,126.9251341
146,이디야커피 선릉점,서울 강남구 선릉로86길 15 현대선릉골드타워 105호,37.5076267,127.0555747
147,이디야커피 이화여대점,"서울 서대문구 이화여대길 26 이화빌딩 2, 3층",37.5618588,126.9468339
148,이디야커피 경복궁역점,서울 종로구 자하문로 7,37.5792054,126.9699973
149,이디야커피 성신여대점,서울 성북구 보문로34길 100,37.5911844,127.020776
150,이디야커피 신길역점,서울 영등포구 영등포로 353,37.5150289,126.918074
151,이디야커피 상계역사거리점,"서울 노원구 한글비석로 409 1,2층",37.6611031,127.0708473
152,이디야커피 관악구청점,서울 관악구 관악로 164 대우디오슈페리움1단지,37.4795649,126.9528901
153,이디야커피 합정LIG점,서울 마포구 양화로1길 21,37.5494407,126.9103713
154,이디야커피 강동구청점,서울 강동구 성내로6길 20,37.5289686,127.1222046
155,이디야커피 성신여대역점,서울 성북구 동소문로17길 40,37.5938945,127.0158713
156,이디야커피 잠실나루역점,서울 송파구 올림픽로35길 104 장미C상가 2층 206호,37.5188607,127.0992536
157,이디야커피 신대방삼거리점,서울 동작구 상도로 78 1층,37.4995056,126.9291357
158,이디야커피 남구로역점,서울 구로구 디지털로27길 127,37.4846716,126.8870975
159,이디야커피 군자역점,서울 광진구 능동로 290,37.5555903,127.0790595
160,이디야커피 증산동점,서울 은평구 증산서길 78 1층,37.5833382,126.9065476
161,이디야커피 청구역점,서울 중구 다산로 181-2,37.5597511,127.0132283
162,이디야커피 우면동점,서울 서초구 바우뫼로 20,37.4743323,127.0335774
163,이디야커피 도봉보건소사거리점,서울 도봉구 해등로 157,37.6567466,127.0388047
164,이디야커피 서대문점,서울 서대문구 통일로 141 1층,37.5668727,126.9652175
165,이디야커피 강남도산점,서울 강남구 도산대로37길 20,37.5222413,127.0314815
166,이디야커피 서울교대점,서울 서초구 서초중앙로 89,37.4897262,127.0140688
167,이디야커피 종각점,서울 종로구 삼일대로19길 24,37.56962,126.9862007
168,이디야커피 가산리더스타워점,서울 금천구 벚꽃로 286 삼성리더스타워 지하 1층,37.4803075,126.8841943
169,이디야커피 이수중앙점,서울 동작구 사당로 285,37.4846165,126.9791799
170,이디야커피 한국은행점,서울 중구 남대문로 29-2,37.5614031,126.9789514
171,이디야커피 도림점,서울 영등포구 도신로15길 40,37.5085713,126.8965694
172,이디야커피 자양우성점,서울 광진구 자양번영로 34 제이원하이텔,37.5326796,127.0757387
173,이디야커피 월곡1동점,서울 성북구 오패산로 99,37.6107208,127.0351251
174,이디야커피 문정중앙점,서울 송파구 문정로 31-1 선욱빌딩 1층,37.4864701,127.1263126
175,이디야커피 일원동점,서울 강남구 양재대로27길 20,37.49037060000001,127.0816125
176,이디야커피 화랑대역점,서울 중랑구 신내로25가길 2,37.6194506,127.0841605
177,이디야커피 갈현점,서울 은평구 갈현로 268,37.6122498,126.9132786
178,이디야커피 망원역점,서울 마포구 월드컵로 82-1,37.5563256,126.9101884
179,이디야커피 공릉역점,서울 노원구 동일로192길 5,37.626035,127.0733753
180,이디야커피 신촌로터리점,서울 마포구 서강로 135,37.554477,126.9354016
181,이디야커피 장안동점,서울 동대문구 장한로 43,37.5650632,127.0666931
182,이디야커피 상봉역점,서울 중랑구 망우로 288-1,37.5957965,127.0844946
183,이디야커피 잠실본동점,서울 송파구 백제고분로 172 1층,37.5046895,127.0858334
184,이디야커피 용두동점,서울 동대문구 고산자로 413-1,37.5766232,127.0379189
185,이디야커피 역삼중앙점,서울 강남구 언주로81길 8,37.500316,127.0428617
186,이디야커피 석촌사거리점,서울 송파구 송파대로 409 범양빌딩 1층,37.5034635,127.1082718
187,이디야커피 장승배기역점,서울 동작구 상도로 193,37.5052485,126.9401875
188,이디야커피 총신대점,"서울 동작구 사당로16가길 96 1,2층",37.4850653,126.9688107
189,이디야커피 대치포스코점,서울 강남구 테헤란로78길 16 노벨빌딩,37.5050626,127.0553827
190,이디야커피 신창점,서울 도봉구 덕릉로 235,37.6388915,127.0380921
191,이디야커피 월계인덕점,서울 노원구 광운로22길 39,37.6712947,127.0807703
192,이디야커피 시흥사거리점,서울 금천구 시흥대로63길 8,37.4549924,126.8991565
193,이디야커피 보훈병원점,서울 강동구 명일로 110,37.5287781,127.1431444
194,이디야커피 신림미성점,서울 관악구 난곡로 250,37.4712962,126.917945
195,이디야커피 논골사거리점,서울 성동구 난계로 35,37.5554834,127.0244633
196,이디야커피 중화역점,서울 중랑구 동일로 815 1층,37.6030917,127.0788763
197,이디야커피 묵동자이점,서울 중랑구 동일로 932 묵동자이프라자 내,37.613816,127.077513
198,이디야커피 성북구청점,서울 성북구 보문로 162 1층,37.5889271,127.0169557
199,이디야커피 구일역점,서울 구로구 구일로 110,37.4950273,126.872004
200,이디야커피 교대역점,서울 서초구 서초대로56길 22,37.4934457,127.0170958
201,이디야커피 무악재역점,서울 서대문구 통일로 369,37.5830666,126.9496747
202,이디야커피 홍대학원가점,서울 마포구 와우산로 148,37.5541014,126.929644
203,이디야커피 송파하비오점,서울 송파구 송파대로 111 파크하비오타워 205동 1층 108호,37.4811895,127.1237787
204,이디야커피 삼각지역점,서울 용산구 한강로1가 50-1,37.5365551,126.9728148
205,이디야커피 천호역점,서울 강동구 천호대로 1006,37.5379796,127.1237397
206,이디야커피 당곡사거리점,서울 관악구 봉천로 245,37.4892526,126.9290254
207,이디야커피 광나루점,서울 광진구 아차산로 624,37.5481419,127.1075214
208,이디야커피 선정릉역점,서울 강남구 봉은사로 326,37.5096114,127.042657
209,이디야커피 마곡역점,서울 강서구 공항대로 195,37.5533338,126.8510294
210,이디야커피 동부이촌동점,서울 용산구 이촌로77길 19,37.52040119999999,126.974878
211,이디야커피 응암역점,서울 은평구 연서로 9 1층 106호,37.5998561,126.9154719
212,이디야커피 송정역점,서울 강서구 공항대로 24,37.5611369,126.8099466
213,이디야커피 정릉점,서울 성북구 보국문로 77 1층,37.6111065,127.0086007
214,이디야커피 우장산동점,서울 강서구 우현로 15,37.547128,126.8436128
215,이디야커피 상암한샘점,서울 마포구 성암로13길 58 1층,37.5756558,126.8977097
216,이디야커피 함지박사거리점,서울 서초구 방배로 234 이디야커피,37.4940931,126.9899026
217,이디야커피 서초점,서울 서초구 서초대로48길 16,37.4920152,127.0113078
218,이디야커피 역삼충현점,서울 강남구 논현로98길 7,37.5037266,127.0363318
219,이디야커피 성수중앙점,서울 성동구 성수일로6길 47,37.5442438,127.0552721
220,이디야커피 길음뉴타운점,서울 성북구 길음로 74 길음SH빌,37.6097759,127.0206116
221,이디야커피 서울대입구역점,서울 관악구 관악로 195 위버폴리스 B동 1층,37.4827737,126.9533183
222,이디야커피 종로르메이에르점,서울 종로구 종로 19 르메이에르종로타운,37.5709593,126.9798759
223,이디야커피 보라매점,서울 동작구 보라매로5가길 16 101-7호,37.4912431,126.9240825
224,이디야커피 녹두거리점,서울 관악구 신림로 91,37.47029879999999,126.9390781
225,이디야커피 마곡나루역점,서울 강서구 마곡중앙5로 6,37.5675714,126.8271225
226,이디야커피 삼각산점,서울 강북구 솔샘로40길 3,37.6198769,127.0160092
227,이디야커피 상봉중앙점,서울 중랑구 망우로 316,37.5964462,127.0875204
228,이디야커피 한국수출입은행점,서울 영등포구 은행로 38 1층,37.52859309999999,126.9233935
229,이디야커피 수서역점,서울 강남구 광평로 280 로즈데일오피스텔,37.4871856,127.1026541
230,이디야커피 구산역점,서울 은평구 연서로 148,37.6119567,126.9176102
231,이디야커피 역촌진흥로점,서울 은평구 진흥로1길 3,37.6007275,126.91862
232,이디야커피 은평구청점,서울 은평구 은평로 197,37.6016007,126.9296014
233,이디야 송파문정점,서울 송파구 송이로 159,37.4929217,127.1253339
234,이디야커피 보문역점,서울 성북구 보문로 111,37.5849003,127.0193241
235,이디야커피 상도중앙점,"서울 동작구 만양로 17 1층 101, 102호",37.5062558,126.9471246
236,이디야커피 사가정역점,서울 중랑구 면목로 325,37.5810983,127.0881584
237,이디야커피 성동구청점,서울 성동구 고산자로 269,37.5636603,127.0357573
238,이디야커피 신설점,서울 종로구 난계로29길 30 1층,37.5741948,127.0214683
239,이디야커피 중랑역점,서울 중랑구 망우로 198,37.593212,127.0748661
240,이디야커피 강남논현학동점,서울 강남구 논현로131길 28,37.5140401,127.028091
241,이디야커피 문래역점,서울 영등포구 문래로 89 문래비즈타워 1층,37.5196161,126.8919362
242,이디야커피 촬영소사거리점,서울 동대문구 답십리로 264,37.5722268,127.0694723
243,이디야커피 먹골역점,서울 중랑구 동일로157길 13 1층,37.6097015,127.0768818
244,이디야커피 불광연서로점,서울 은평구 연서로 275,37.620897,126.9248425
245,이디야커피 잠원논현점,서울 서초구 신반포로 333,37.5108882,127.0201282
246,이디야커피 포이사거리점,서울 강남구 개포로 218,37.4784579,127.0465991
247,이디야커피 중랑교차로점,서울 중랑구 동일로 683,37.5913966,127.0798414
248,이디야커피 창덕궁점,서울 종로구 돈화문로 41-1,37.5722317,126.9914191
249,이디야커피 강서한강자이점,서울 강서구 양천로 401 B동 1층 108호,37.5642415,126.8426754
250,이디야커피 신도림메르디앙점,서울 구로구 신도림로 65 1층,37.509516,126.8820471
251,이디야커피 동자동점,서울 용산구 후암로 93 1층,37.5533136,126.975103
252,이디야커피 동대문구청점,서울 동대문구 천호대로 153-1 1층,37.57357450000001,127.0406264
253,이디야커피 봉천중앙점,서울 관악구 남부순환로 1874,37.4789698,126.9577375
254,이디야커피 신길썬프라자점,서울 영등포구 신길로 42,37.506933,126.9132109
255,이디야커피 용산청파점,서울 용산구 청파로71길 10 1층,37.5494246,126.9693891
256,이디야커피 방이초교점,서울 송파구 가락로 280 1층,37.5127115,127.1199902
257,이디야커피 사당역점,서울 동작구 동작대로7길 100,37.4771207,126.9775204
258,이디야커피 대방역점,서울 동작구 노량진로 24,37.511465,126.9537268
259,이디야커피 고대구로병원점,서울 구로구 구로동로 157,37.492533,126.8833543
260,이디야커피 구의동점,서울 광진구 아차산로 481,37.54093140000001,127.0949405
261,이디야커피 신당점,서울 중구 다산로35길 11 1층,37.56351799999999,127.0148075
262,이디야커피 방학중앙점,서울 도봉구 도당로13길 22 1층,37.6657273,127.0352862
263,이디야커피 개포동역점,서울 강남구 개포로82길 11 삼우빌딩 1층,37.4885214,127.0674325
264,이디야커피 양재AT점,서울 서초구 동산로 3,37.4690456,127.0402738
265,이디야커피 길동중앙점,서울 강동구 명일로 200 1층,37.5365076,127.1459209
266,이디야커피 암사3동점,서울 강동구 고덕로 140 프라이어팰리스상가 1층 101호,37.5534915,127.1390945
267,이디야커피 오목교역점,서울 양천구 신목로 102,37.5235593,126.8757535
268,이디야커피 애오개역점,서울 마포구 마포대로 208,37.5524425,126.9568124
269,이디야커피 신금호역점,서울 성동구 금호산길 64,37.5538555,127.0196077
270,이디야커피 천호초교사거리점,서울 강동구 구천면로 304 1층,37.546686,127.1347948
271,이디야커피 자양동점,서울 광진구 자양로 46,37.5509059,127.0927659
272,이디야커피 을지로3가점,서울 중구 수표로 45 비즈센터 102호,37.5652959,126.9895634
273,이디야커피 화곡로점,서울 강서구 화곡로 133 2층,37.54079309999999,126.8364778
274,이디야커피 곰달래사거리점,서울 강서구 곰달래로 52,37.53088020000001,126.8591096
275,이디야커피 신림역점,서울 관악구 신림로 312,37.4821435,126.9301389
276,이디야커피 공덕롯데캐슬점,서울 마포구 마포대로 109,37.5448909,126.9506066
277,이디야커피 충무로점,서울 중구 퇴계로 188,37.5607964,126.992541
278,이디야커피 당고개역점,서울 노원구 상계로 313,37.67078619999999,127.0803617
279,이디야커피 뚝섬역점,"서울 성동구 상원4길 4 1,2층",37.5473256,127.048794
280,이디야커피 미아중앙점,서울 강북구 도봉로 128,37.62042840000001,127.0287354
281,이디야커피 구로역광장점,서울 구로구 경인로 572,37.5032462,126.8810549
282,이디야커피 돌곶이역점,서울 성북구 돌곶이로22길 3,37.6101594,127.058086
283,이디야커피 창동역점,서울 도봉구 마들로11길 65 1층 3호,37.6533575,127.0496609
284,이디야커피 개봉역점,서울 구로구 남부순환로97길 11,37.4941792,126.8583787
285,이디야커피 천호중앙점,서울 강동구 올림픽로 660 105호,37.540115,127.1245713
286,이디야커피 연신내중앙점,서울 은평구 통일로 825,37.6170165,126.9226896
287,이디야커피 국회의사당역점,서울 영등포구 의사당대로 22 1층,37.5268293,126.91783
288,이디야커피 망리단길점,서울 마포구 포은로 81-1 S빌딩 1층,37.5543031,126.9052551
289,이디야커피 목동남부점,서울 양천구 목동남로 46,37.5087155,126.8647187
290,이디야커피 숭인점,서울 종로구 숭인동길 6,37.5752518,127.0215847
291,이디야커피 미아역점,서울 강북구 도봉로 207 1층,37.6270186,127.0254629
292,이디야커피 장안중앙점,서울 동대문구 사가정로25길 42,37.5806425,127.0709617
293,이디야커피 다동점,서울 중구 다동길 46,37.56782159999999,126.9817119
294,이디야커피 종로교차로점,서울 종로구 동호로 406-1,37.5705613,127.002241
295,이디야커피 신사점,서울 강남구 도산대로 118,37.5165111,127.0218046
296,이디야커피 공릉중앙점,서울 노원구 공릉로 146,37.623043,127.0795195
297,이디야커피 가재울점,서울 서대문구 수색로 100,37.57283839999999,126.9123903
298,이디야커피 대흥역점,서울 마포구 백범로 100,37.54746,126.942357
299,이디야커피 종합운동장역점,서울 송파구 올림픽로 76 제이타워 1층 104호,37.5115209,127.0791737
300,이디야커피 KBS별관점,서울 영등포구 국제금융로8길 27-9 동북빌딩 1층,37.5196169,126.9289537
301,이디야커피 텐즈힐점,서울 성동구 무학로 33,37.576377,127.0294681
302,이디야커피 노원사거리점,서울 노원구 동일로 1393,37.6529076,127.0605347
303,이디야커피 강남YMCA점,서울 강남구 봉은사로37길 29,37.5099018,127.0357061
304,이디야커피 삼양사거리점,서울 강북구 솔샘로 254 1층,37.6193356,127.0206844
305,이디야커피 구의사거리점,"서울 광진구 광나루로 508 102,103호",37.5447592,127.0859475
306,이디야커피 마들역점,서울 노원구 동일로 1541,37.66581350000001,127.0569853
307,이디야커피 응봉동점,서울 성동구 독서당로 381 현대종합상가 1층,37.54264939999999,127.0119669
308,이디야커피 해군회관점,서울 동작구 여의대방로 194,37.5042167,126.9222519
309,이디야커피 마곡파인스퀘어점,서울 강서구 마곡중앙4로 22 파인스퀘어 1층 124-126호,37.558339,126.829802
310,이디야커피 신월신곡시장점,서울 양천구 신월로 172,37.5182621,126.8426399
311,이디야커피 방학사거리점,서울 도봉구 도봉로 677,37.6648915,127.0423018
312,이디야커피 왕십리비트플렉스점,서울 성동구 왕십리광장로 17,37.5621482,127.0379421
313,이디야커피 4.19사거리점,서울 강북구 삼양로 501,37.6478542,127.0142169
314,이디야커피 등촌동점,서울 강서구 공항대로61길 20,37.5518155,126.865756
315,이디야커피 양천구청점,서울 양천구 목동동로 63,37.5152752,126.8623016
316,이디야커피 회기역중앙점,서울 동대문구 회기로 193,37.5901447,127.0574211
317,이디야커피 구로NC점,서울 구로구 구로동로 240 103호,37.4999675,126.8826973
318,이디야커피 구로미성점,서울 구로구 구로중앙로 228,37.5061286,126.8765952
319,이디야커피 송파파인타운점,서울 송파구 충민로2길 28,37.4772734,127.1273388
320,이디야커피 마장역점,서울 성동구 마장로 293-1,37.5659109,127.0421543
321,이디야커피 서초역점,"서울 서초구 반포대로21길 23 세진빌딩 1층 102,103호",37.4876739,127.0085053
322,이디야커피 예술의전당점,서울 서초구 반포대로 32 원일빌딩,37.4833789,127.0121074
323,이디야커피 포이점,서울 서초구 마방로10길 42 1층,37.475593,127.0445372
324,이디야커피 노량진CTS점,서울 동작구 노량진로 110,37.5131457,126.9380262
325,이디야커피 신도림테크노마트점,서울 구로구 새말로 97,37.5070431,126.8902185
326,이디야커피 상수역점,서울 마포구 와우산로 41-1 1층,37.5482086,126.9228014
327,이디야커피 신림대학동점,서울 관악구 호암로26길 17,37.4707098,126.9345955
328,이디야커피 까치산역점,서울 강서구 강서로17길 6 광성빌딩 1층,37.5333976,126.8452334
329,이디야커피 홍제역점,서울 서대문구 통일로 431,37.5874248,126.9453165
330,이디야커피 장안동사거리점,서울 동대문구 답십리로 309,37.572295,127.0748317
331,이디야커피 중계점,서울 노원구 동일로204가길 34 씨앤미빌딩 103호,37.6406859,127.0681273
332,이디야커피 상계동점,서울 노원구 한글비석로52길 8 1층,37.6648446,127.0664584
333,이디야커피 양재점,서울 서초구 남부순환로347길 38 원효빌딩 1층 1-5호,37.4843236,127.0306334
334,이디야커피 석관동점,서울 성북구 돌곶이로8길 22 301동 1층 109동,37.606103,127.0634229
335,이디야커피 신월사거리점,서울 양천구 남부순환로 353,37.5356284,126.8289172
336,이디야커피 쌍문역점,서울 도봉구 도봉로117길 4,37.6494003,127.034694
337,이디야커피 상암우리기술점,서울 마포구 월드컵북로56길 9 1층 102호,37.5813475,126.887425
338,이디야커피 양평동2가점,서울 영등포구 선유서로25길 19,37.5241382,126.8842567
339,이디야커피 상암DMC점,서울 마포구 월드컵북로 396 누리꿈몰스퀘어 110호,37.579396,126.8897942
340,이디야커피 성수아카데미점,서울 성동구 성수이로 118 성수아카데미타워 104호,37.545161,127.0577529
341,이디야커피 만리동고개점,서울 중구 만리동2가 231-38 서울역센트럴 자이상가 1층 402동 102호,37.555136,126.9634788
342,이디야커피 원효로점,서울 용산구 원효로 257,37.5405279,126.9691008
343,이디야커피 을지병원사거리점,서울 강남구 도산대로30길 7,37.5193645,127.0294202
344,이디야커피 답십리로데오점,서울 성동구 용답19가길 24,37.5638359,127.0525436
345,이디야커피 창동현대타운점,서울 도봉구 도봉로114길 22 1층,37.6473276,127.0356466
346,이디야커피 광화문트윈트리타워점,서울 종로구 율곡로 6,37.5762457,126.9892919
347,이디야커피 영등포그랜드점,서울 영등포구 양산로9길 15 그랜드타워 1층 101호,37.526058,126.884132
348,이디야커피 탑골공원점,서울 종로구 수표로 109-1,37.57097470000001,126.989189
349,이디야커피 공항시장역점,서울 강서구 방화동로 37,37.5641437,126.8106696
350,이디야커피 구로에이스점,서울 구로구 디지털로33길 11 에이스테크노타워 8차 106호,37.4851811,126.8951168
351,이디야커피 돈암동점,서울 성북구 동소문로 119,37.5937743,127.0178862
352,이디야커피 도봉구청점,서울 도봉구 도봉로150길 43,37.6663859,127.0455878
353,이디야커피 낙원동점,서울 종로구 삼일대로 436-1,37.5735649,126.9880038
354,이디야커피 순천향병원점,"서울 용산구 대사관로 72 1층 12호, 13호",37.5330587,127.0059327
355,이디야커피 금란망우점,서울 중랑구 망우로 460 1층,37.6000681,127.1031213
356,이디야커피 개봉북부점,서울 구로구 경인로40길 12,37.4961811,126.8591014
357,이디야커피 마포데시앙점,서울 마포구 독막로 320 마포데시앙 1층 104호,37.5430649,126.9488619
358,이디야커피 은행나무사거리점,서울 금천구 금하로 690 1층,37.4517558,126.9066215
359,이디야커피 강남자곡점,서울 강남구 자곡로 180 유탑유블레스 1층,37.4734846,127.1030979
360,이디야커피 증미한화점,서울 강서구 양천로 551-17 한화비즈메트로1차 1층,37.5592722,126.8609549
361,이디야커피 한성대점,서울 성북구 삼선교로10길 45,37.5861434,127.0100007
362,이디야커피 방학점,서울 도봉구 방학로 171,37.6621271,127.0332303
363,이디야커피 장위북서울꿈의숲점,"서울 성북구 돌곶이로41가길 2 1,2층",37.6185575,127.0455923
364,이디야커피 광산사거리점,서울 강북구 한천로 1083 1층,37.6424949,127.0226569
365,이디야커피 하월곡동점,서울 성북구 오패산로 16 1층,37.6035972,127.0375512
366,이디야커피 강일점,"서울 강동구 아리수로93길 19 임페리얼타워 1층 105호, 106호",37.5665592,127.1737804
367,이디야커피 미아삼거리역점,서울 강북구 도봉로10길 28,37.6138407,127.0310049
368,이디야커피 선덕고사거리점,"서울 도봉구 해등로 255 에벤에셀아파트 101동 209, 225호",37.6573275,127.0282084
369,이디야커피 국민대점,서울 성북구 정릉로9라길 8,37.6111263,127.0003764
370,이디야커피 석촌역점,서울 송파구 송파대로 456,37.5071619,127.1058265
371,이디야커피 서울공진초교점,"서울 강서구 마곡중앙1로 26 마곡엠리체 101,102호",37.55319679999999,126.8298352
372,이디야커피 방배역점,서울 서초구 방배로 87 1층 3호,37.482139,126.9968963
373,이디야커피 종암동점,서울 성북구 종암로 105,37.5994896,127.0339384
374,이디야커피 황학롯데캐슬점,서울 중구 청계천로 400,37.5708733,127.0213284
375,이디야커피 종로4가점,서울 종로구 김상옥로 1,37.5734546,126.9978915
376,이디야커피 신림남부초교점,서울 관악구 남부순환로 1541-1,37.48336219999999,126.921872
377,이디야커피 우이역도선사점,서울 강북구 삼양로173길 21,37.6626046,127.0113765
378,이디야커피 어린이대공원역점,서울 광진구 광나루로 380,37.5475795,127.0718667
379,이디야커피 전농사거리점,서울 동대문구 사가정로 132,37.5775568,127.0595101
380,이디야커피 중앙대점,서울 동작구 흑석로 79 1층,37.5069892,126.9584078
381,이디야커피 은행사거리점,서울 노원구 중계로 201 오성프라자 102호,37.6504368,127.0777536
382,이디야커피 쌍문동점,서울 도봉구 노해로 162,37.6487826,127.0272818
383,이디야커피 한성대역점,서울 성북구 동소문로 19 지하1층~지상2층,37.5894891,127.008087
384,이디야커피 회기역점,서울 동대문구 망우로 67 효자워너빌 103호 1층,37.5899254,127.0606026
385,이디야커피 이문점,서울 동대문구 신이문로 19 1층,37.5896627,127.0549497
386,이디야커피 박미삼거리점,서울 금천구 시흥대로 150,37.47636,126.9007077
387,이디야커피 중화동점,서울 중랑구 동일로129길 1 1층,37.5991715,127.0783477
388,이디야커피 광진구청점,서울 광진구 자양로 136 1층,37.5397529,127.0833879
389,이디야커피 마곡대방디엠씨티점,서울 강서구 양천로 344 대방디엠시티오피스텔1차 지하108호,37.5642415,126.8426754
390,이디야커피 목동역점,서울 양천구 오목로 229 1층,37.5260462,126.8628734
391,이디야커피 석계역점,서울 노원구 석계로3길 3,37.6155161,127.0643253
392,이디야커피 종로타워점,서울 종로구 종로 51 지하1층,37.5707727,126.983525
393,이디야커피 창신동점,서울 종로구 종로 316-1,37.5719863,127.0129084
394,이디야 인헌점,서울 관악구 인헌길 17,37.4707292,126.9688722
395,이디야커피 중계롯데우성점,서울 노원구 노원로22길 70 상가 201호,37.6468513,127.0727677
396,이디야커피 YTN점,서울 중구 세종대로1길 11,37.5581786,126.9725407
397,이디야커피 오장동점,서울 중구 마른내로 109-1 1층,37.5645748,127.0001136
398,이디야커피 목4동점,서울 양천구 목동중앙본로7길 46,37.5394371,126.86612
399,이디야커피 장한평 군자초교점,서울 동대문구 한천로2길 53,37.5627974,127.0613958
400,이디야커피 구산사거리점,서울 은평구 서오릉로 195 1층,37.613445,126.9118087
401,이디야커피 월곡동아점,서울 성북구 장월로1길 47 1층,37.606215,127.0456787
402,이디야커피 상계역점,서울 노원구 덕릉로 698,37.6598008,127.0756283
403,이디야커피 문정문현점,서울 송파구 새말로8길 30,37.4800957,127.1266355
404,이디야커피 서초법조타운점,서울 서초구 서초중앙로24길 7 동천빌딩,37.483796,127.0355774
405,이디야커피 쌍문중앙점,"서울 도봉구 도봉로 519 1, 2층",37.651912,127.0363036
406,이디야커피 강서NC점,서울 강서구 강서로54길 11 가동 1층,37.5592805,126.8393255
407,이디야커피 신정네거리역점,서울 양천구 중앙로 282,37.5215126,126.8525663
408,이디야커피 중곡대원점,서울 광진구 용마산로 111,37.5635558,127.0866291
409,이디야커피 세광교회점,서울 금천구 독산로 124,37.4582394,126.9056093
410,이디야커피 목3동점,서울 양천구 목동중앙북로 38,37.5468869,126.8672611
411,이디야커피 신림신원점,서울 관악구 신원로 16,37.48078539999999,126.9281219
412,이디야커피 충무로3가점,서울 중구 퇴계로27길 31,37.56252509999999,126.9912341
413,이디야커피 신길아이파크점,서울 영등포구 도림로 280,37.5029,126.9042022
414,이디야커피 역삼월드점,서울 강남구 역삼로52길 14 도곡프라자 102호,37.4985444,127.0479369
415,이디야커피 올림픽공원점,서울 송파구 올림픽로 354,37.5160676,127.109727
416,이디야커피 송파한양점,서울 송파구 가락로 165,37.5037323,127.1135741
417,이디야커피 강동역점,서울 강동구 천호대로 1065 강동상떼빌 로비층 106호,37.5369023,127.1302611
418,이디야커피 답십리파크자이점,서울 동대문구 한천로 55,37.5966208,127.0670655
419,이디야커피 가재울중앙점,서울 서대문구 가재울미래로 2 101동 105호,37.5741309,126.9095579
420,이디야커피 보라매역점,서울 영등포구 여의대방로 141,37.4996294,126.9199734
421,이디야커피 중앙대후문점,서울 동작구 흑석로 20,37.5047935,126.9530208
422,이디야커피 도림사거리점,서울 영등포구 도림로 326,37.5065486,126.9018065
423,이디야커피 하계온천점,서울 노원구 노원로 257 1층 104호,37.6402321,127.0727435
424,이디야커피 방화동로점,서울 강서구 방화동로 95,37.5690525,126.8126438
425,이디야커피 상도역점,서울 동작구 상도로 277,37.502774,126.9483282
426,이디야커피 낙성대역점,서울 관악구 남부순환로 1915,37.477862,126.9621916
427,이디야커피 서울과학기술대점,서울 노원구 공릉로 208,37.628258,127.0777683
428,이디야커피 선릉사거리점,서울 강남구 선릉로 519,37.5058332,127.047994
429,이디야커피 개롱역점,서울 송파구 오금로 407 1층 107호,37.4979912,127.135763
430,이디야커피 동소문동점,서울 성북구 동소문로13길 5,37.5920114,127.0128569
431,이디야커피 중림점,서울 중구 청파로 464,37.5607773,126.9682129
432,이디야커피 CBS본사점,서울 양천구 목동서로 159-1,37.52821350000001,126.8749471
433,이디야커피 중계중앙점,서울 노원구 덕릉로73길 18 태인빌딩 1층 104호,37.6521367,127.0723076
434,이디야커피 서울시립대점,서울 동대문구 서울시립대로 164 1층 104호,37.583249,127.0548191
435,이디야커피 상암KBS점,서울 마포구 월드컵북로 375 이안상암1단지 1층 107호,37.5741991,126.8962551
436,이디야커피 신림문화교점,서울 관악구 신림로 262-1 1층,37.478521,126.9326948
437,이디야커피 정릉중앙점,서울 성북구 정릉로 251,37.6046666,127.0119116
438,이디야커피 신길중앙점,서울 영등포구 도신로 229,37.5121582,126.9165036
439,이디야 가양역점,서울 강서구 양천로 500 1층 111호,37.5605018,126.8555237
440,이디야커피 신정서부점,서울 양천구 신정로11길 50-15,37.5121775,126.8383361
441,이디야커피 양재언남점,서울 서초구 동산로 60,37.4716597,127.0454069
442,이디야커피 남성역점,서울 동작구 사당로17가길 13 1층,37.4837726,126.9734022
443,이디야커피 가산월드점,서울 금천구 가산디지털2로 123,37.4787503,126.8786525
444,이디야커피 중곡역점,서울 광진구 능동로 407,37.5653961,127.0837734
445,이디야커피 청담사거리점,서울 강남구 도산대로 521,37.5248364,127.0503603
446,이디야커피 위례아이파크점,서울 송파구 위례광장로 136 애비뉴 트랜짓몰 지하 1층,37.4850892,127.1332182
447,이디야커피 마포점,서울 마포구 도화길 10,37.5397641,126.9473823
448,이디야커피 회현SK리더스점,서울 중구 퇴계로 72,37.5590809,126.9805937
449,이디야커피 용산후암점,서울 용산구 후암로 40-2,37.5495172,126.9776594
450,이디야커피 정릉뉴타운점,서울 성북구 정릉로 307 라온유아파트 상가동 B107호,37.602951,127.018105
451,이디야커피 충무필동점,서울 중구 퇴계로 218-5,37.5613417,126.9962643
452,이디야커피 역촌사거리점,서울 은평구 서오릉로 100,37.60888310000001,126.9209257
453,이디야커피 봉일시장점,서울 관악구 은천로 23,37.487825,126.9484942
454,이디야커피 구반포역점,서울 서초구 신반포로 50,37.5017467,126.9901286
455,이디야커피 노원중앙점,서울 노원구 노원로 452,37.6568057,127.0669206
456,이디야커피 돈암아리랑점,서울 성북구 아리랑로 75 돈암코오롱하늘채 상가동 112호,37.5992985,127.0129938
457,이디야커피 난향동점,서울 관악구 난곡로 60,37.4607674,126.9193864
458,이디야커피 장위뉴타운점,서울 성북구 장월로 144-1 1층,37.6176579,127.0510126
459,이디야커피 연대서문점,서울 서대문구 연희로10길 86,37.5636727,126.933677
460,이디야커피 동덕여대점,서울 성북구 화랑로 99,37.6034496,127.0426676
461,이디야커피 성수2가점,서울 성동구 성덕정길 106,37.5371206,127.0550961
462,이디야커피 목동로데오점,"서울 양천구 목동로 219 1, 2층",37.5279211,126.8637907
463,이디야커피 시흥동점,서울 금천구 시흥대로 198,37.4515665,126.9021441
464,이디야커피 중곡신성점,서울 광진구 용마산로 37 1층,37.5569838,127.0877098
465,이디야커피 서울삼성내과점,서울 송파구 백제고분로 126 1층,37.5061322,127.0807397
466,이디야커피 정동점,서울 중구 정동길 2-1,37.5679414,126.9693423
467,이디야커피 신길성애병원점,서울 영등포구 여의대방로53길 27,37.5118321,126.9215338
468,이디야커피 용산원효점,서울 용산구 원효로 70,37.5324502,126.951608
469,이디야커피 경희대점,서울 동대문구 경희대로 4,37.5916824,127.0551428
470,이디야커피 오벨리스크점,서울 마포구 마포대로 33 1층 103호,37.5399759,126.9454625
471,이디야커피 독립문역점,서울 종로구 통일로 266 102호,37.57580600000001,126.9567685
472,이디야커피 수유1동점,"서울 강북구 삼양로 293 서영프라자 105,106호",37.6295659,127.0176488
473,이디야커피 대림성모점,서울 동작구 시흥대로 658,37.4903375,126.9080654
474,이디야커피 강남세곡점,서울 강남구 헌릉로569길 9 1층,37.466266,127.1167873
475,이디야커피 충무아트홀점,서울 중구 퇴계로 381-1,37.5652402,127.0139856
476,이디야커피 명일중앙점,서울 강동구 상암로 210,37.5462623,127.1457746
477,이디야커피 길동역점,서울 강동구 양재대로 1471,37.5372792,127.1393753
478,이디야커피 삼성중앙점,서울 강남구 봉은사로 442,37.5112728,127.0482123
479,이디야커피 거여점,서울 송파구 오금로 497,37.4934491,127.1441973
480,이디야커피 세종로점,서울 중구 세종대로21길 67,37.5692528,126.9757053
481,이디야커피 가산두산위브점,서울 금천구 가산로 111,37.4755779,126.8929078
482,이디야커피 종로삼일대로점,서울 종로구 삼일대로 390-1,37.5694125,126.9879502
483,이디야커피 신촌숲아이파크점,서울 마포구 신수동 68-26,37.5508735,126.9332811
484,이디야커피 광운대점,서울 노원구 광운로 29,37.6202851,127.0584102
485,이디야커피 건대후문점,서울 광진구 광나루로 416,37.5464057,127.0755739
486,이디야커피 불광중앙점,서울 은평구 불광로 59,37.6122908,126.9317226
487,이디야커피 용문점,서울 용산구 원효로41길 73,37.5358104,126.9611254
488,이디야커피 마곡헤리움점,서울 강서구 마곡중앙5로1길 25,37.55319679999999,126.8298352
489,이디야커피 우림시장점,서울 중랑구 봉우재로 240 1층,37.595272,127.0993536
490,이디야커피 방학역점,서울 도봉구 도봉로153길 15,37.669757,127.0425203
491,이디야커피 불광역점,서울 은평구 불광로 28,37.6229243,126.9334724
492,이디야커피 문정테라타워점,서울 송파구 송파대로 167 지하1층,37.48532,127.1212618
493,이디야커피 외대점,서울 동대문구 휘경로 12,37.5933746,127.061969
494,이디야커피 노원KT점,서울 노원구 노해로 494,37.6545399,127.0629813
495,이디야커피 성공회대점,서울 구로구 연동로 312 2층,37.4872294,126.8242853
496,이디야커피 염창동점,서울 강서구 양천로 684 부성빌딩 1층,37.5506182,126.8719526
497,이디야커피 서울고교점,서울 서초구 효령로40길 4 1층,37.4827058,127.0057589
498,이디야커피 번동점,서울 강북구 오현로 194 덕수빌딩 1층,37.6288338,127.0398506
499,이디야커피 상일리엔파크점,서울 강동구 상일로 74,37.5525612,127.1752562
