,Name,Addr,lat,lng
0,스타벅스 파미에파크R점,서울 서초구 사평대로 205 센트럴시티 파미에파크돔,37.5030124,127.0043269
1,스타벅스 강남R점,서울 강남구 강남대로 390,37.4977735,127.028536
2,스타벅스 더종로R점,서울 종로구 종로 51,37.5707075,126.9835766
3,스타벅스 광화문R점,서울 종로구 세종대로 167 현대해상본사사옥 별관내,37.570934,126.9761231
4,스타벅스 영등포신길점,"서울 영등포구 신길로 137 1,2층",37.50455729999999,126.9100739
5,스타벅스 청담스타R점,서울 강남구 도산대로57길 24,37.5252162,127.0418275
6,스타벅스 공릉DT점,서울 노원구 동일로 1015,37.6206884,127.0743116
7,스타벅스 환구단점,서울 중구 소공로 112 반도조선아케이드,37.564378,126.980058
8,스타벅스 연희DT점,서울 서대문구 연희로 144,37.5701185,126.9338591
9,스타벅스 홍대입구역사거리R점,서울 마포구 양화로 125 경남관광빌딩 1층,37.5546944,126.9203776
10,스타벅스 석촌호수점,"서울 송파구 석촌호수로 262 지상 1, 2층",37.5094027,127.1052218
11,스타벅스 화곡DT점,서울 강서구 등촌로 57,37.5507369,126.8632956
12,스타벅스 한강진역R점,서울 용산구 이태원로 252,37.5370671,127.0010864
13,스타벅스 용산역써밋R점,서울 용산구 한강대로 69,37.5271632,126.9651663
14,스타벅스 신월ICDT점,서울 양천구 남부순환로 430,37.5293911,126.8320559
15,스타벅스 신촌점,서울 서대문구 연세로 10-1 즐거운빌딩 1~3층,37.5564503,126.9371086
16,스타벅스 홍대역점,서울 마포구 양화로 165 상진빌딩 1층,37.5571739,126.923614
17,스타벅스 마곡사이언스타워R,서울 강서구 마곡동로 62,37.5605665,126.8337192
18,스타벅스 왕십리역,서울 성동구 왕십리로 326,37.5627152,127.0338928
19,스타벅스 신정DT점,서울 양천구 신월로 341,37.5198014,126.8487425
20,스타벅스 압구정로데오역점,"서울 강남구 선릉로 836 삼원빌딩 1,2층",37.49654450000001,127.0420764
21,스타벅스 방화DT,서울 강서구 방화대로 375,37.5743389,126.8164145
22,스타벅스 성신여대점,서울 성북구 동소문로24길 12,37.5931137,127.0184022
23,스타벅스 노량진역점,서울 동작구 노량진로 134,37.5129475,126.9416654
24,스타벅스 수서역R,서울 강남구 수서동 715-1,37.4880623,127.1029796
25,스타벅스 건대입구,서울 광진구 능동로 107,37.5406604,127.0707225
26,스타벅스 보라매공원R점,서울 동작구 보라매로5길 35,37.4920496,126.9234976
27,스타벅스 망원역점,서울 마포구 월드컵로 74,37.5557302,126.9106996
28,스타벅스 청담사거리점,서울 강남구 도산대로 458 리츠타워,37.5236351,127.0468651
29,스타벅스 마곡나루,서울 강서구 마곡중앙로 161-17,37.5681892,126.8261933
30,스타벅스 영등포본동점,서울 영등포구 영등포로 254 우성타워 1층,37.5186783,126.9095609
31,스타벅스 홍대공항철도역점,서울 마포구 양화로 178,37.5574123,126.9254305
32,스타벅스 낙성대DT점,서울 관악구 남부순환로 1948,37.4761693,126.9650053
33,스타벅스 성수역,서울 성동구 성수이로 94,37.543193,127.0569432
34,스타벅스 몬테소리점,서울 서초구 강남대로 399 한국몬테소리 빌딩,37.4982126,127.0268238
35,스타벅스 노원역점,서울 노원구 동일로 1413 남성빌딩 1층,37.6547199,127.0599868
36,스타벅스 잠실새내역점,서울 송파구 올림픽로 96 1층,37.5114268,127.0812007
37,스타벅스 관악서울대입구R점,서울 관악구 관악로 158 BS타워 1층,37.4794085,126.9535822
38,스타벅스 이대R점,서울 서대문구 이화여대길 34,37.5583821,126.9459524
39,스타벅스 신림DT점,서울 관악구 남부순환로 1419,37.4809346,126.9084069
40,스타벅스 사당역점,서울 동작구 동작대로 21 양지빌딩 1-3층,37.47840679999999,126.9813606
41,스타벅스 송파나루역DT점,서울 송파구 오금로 142,37.5107933,127.1102658
42,스타벅스 서울대입구역점,서울 관악구 남부순환로 1812,37.4811125,126.9513217
43,스타벅스 경복궁역점,서울 종로구 자하문로4길 6 1층,37.5771471,126.9726344
44,스타벅스 송파방이DT점,서울 송파구 오금로 241,37.5065478,127.1205263
45,스타벅스 상암DMC점,"서울 마포구 월드컵북로 375 DMC이안오피스텔1단지 102,202호",37.577789,126.890603
46,스타벅스 잠실역점,"서울 송파구 송파대로 562 한빛프라자 1,2층",37.515321,127.0995425
47,스타벅스 답십리역점,서울 동대문구 천호대로 263,37.5684656,127.0511062
48,스타벅스 공릉역,서울 노원구 동일로 1081,37.626337,127.0722523
49,스타벅스 가재울뉴타운점,서울 서대문구 남가좌동 384 2단지 별동상가 1층,37.5751213,126.9160667
50,스타벅스 동대문공원점,서울 중구 장충단로 229,37.5651328,127.0071909
51,스타벅스 종각점,서울 종로구 종로 64,37.5699183,126.9845281
52,스타벅스 은평구청입구점,서울 은평구 은평로 170 상현빌딩 1층,37.6011777,126.9268794
53,스타벅스 스타필드코엑스몰 R점,서울 강남구 삼성동 159-9,37.5102323,127.0601688
54,스타벅스 여의도역R점,서울 영등포구 의사당대로 83 한국휴렛팩커드빌딩 1층,37.5198562,126.9279038
55,스타벅스 서울숲역,서울 성동구 왕십리로 50 메가박스 스퀘어 1층,37.5418055,127.0450105
56,스타벅스 안국점,서울 종로구 북촌로 5-1,37.5773379,126.9856353
57,스타벅스 회기역사거리점,서울 동대문구 이문로 37 회기 한일 베라체캠퍼스 1층,37.5907694,127.0561043
58,스타벅스 장한평역점,서울 동대문구 장한로 10,37.5647038,127.0694499
59,스타벅스 군자역,서울 광진구 천호대로 548,37.5566812,127.0789171
60,스타벅스 노원마들역점,서울 노원구 노원로 569 임광아파트상가,37.6607486,127.05714
61,스타벅스 강동암사DT,서울 강동구 고덕로 43,37.55504,127.1300647
62,스타벅스 상계초교사거리점,서울 노원구 노원로 449,37.6460967,127.0712379
63,스타벅스 천호로데오점,서울 강동구 천호대로 1037,37.5378069,127.1273094
64,스타벅스 석촌서호점,서울 송파구 석촌호수로 176 1층,37.50633510000001,127.0962937
65,스타벅스 강남삼성타운점,서울 서초구 서초대로78길 24,37.4955152,127.027742
66,스타벅스 신설동역점,서울 동대문구 왕산로 19,37.58011510000001,127.0320294
67,스타벅스 구의DT,서울 광진구 광나루로 519,37.545357,127.0871714
68,스타벅스 구로호텔점,서울 구로구 디지털로32길 72 구로호텔 1층,37.4831293,126.8988591
69,스타벅스 서울웨이브아트센터점,서울 서초구 잠원동 149,37.5185697,127.00741
70,스타벅스 영등포역점,서울 영등포구 경인로 870,37.5169614,126.909139
71,스타벅스 문정역점,서울 송파구 송파대로 167,37.4856859,127.1193237
72,스타벅스 까치산역점,서울 강서구 강서로13길 3,37.5316073,126.8454041
73,스타벅스 홍대삼거리점,서울 마포구 와우산로 64,37.5501805,126.9232392
74,스타벅스 합정점,서울 마포구 월드컵로1길 14,37.5495927,126.9121968
75,스타벅스 홍제역점,서울 서대문구 통일로 451,37.5886324,126.943832
76,스타벅스 화곡동점,서울 강서구 화곡로 142,37.5405337,126.8375885
77,스타벅스 성신여대정문,서울 성북구 보문로34길 62,37.5908044,127.0188447
78,스타벅스 서울고속터미널점,서울 서초구 신반포로 194,37.5054942,127.006719
79,스타벅스 어린이대공원역,서울 광진구 능동로 243,37.5518888,127.0764093
80,스타벅스 사당R점,"서울 관악구 남부순환로 2082-25 1,2층",37.47600910000001,126.9809985
81,스타벅스 불광역점,서울 은평구 통일로 715 1층,37.609382,126.9303971
82,스타벅스 신사가로수점,서울 강남구 가로수길 59,37.524609,127.022951
83,스타벅스 신도림점,서울 구로구 경인로 610,37.50500299999999,126.883794
84,스타벅스 발산역,서울 강서구 강서로 388 1층,37.5601723,126.8393026
85,스타벅스 강동구청DT점,서울 강동구 성내로 32,37.5291389,127.1237922
86,스타벅스 별다방점,서울 중구 퇴계로 100,37.5602013,126.9829327
87,스타벅스 양재역점,서울 서초구 강남대로 202 모산빌딩,37.4823239,127.0368273
88,스타벅스 강변역,서울 광진구 구의동 589-10 구의아크로리버 제1층 109호,37.5360961,127.0927925
89,스타벅스 강남대로점,서울 강남구 강남대로 456 1-2호 한석타워,37.5030912,127.0255689
90,스타벅스 신용산역점,서울 용산구 한강대로 95,37.5287967,126.9671806
91,스타벅스 상봉역점,서울 중랑구 망우로 307,37.5968974,127.086455
92,스타벅스 공덕오거리점,서울 마포구 마포대로 86 1층,37.5424641,126.9505773
93,스타벅스 동빙고점,서울 용산구 장문로 12,37.5289471,126.9917838
94,스타벅스 신대방삼거리역점,서울 동작구 상도로 102,37.4999142,126.9317661
95,스타벅스 서울역동자동점,서울 용산구 한강대로 372 센트레빌 아스테리움 서울 KDB생명타워 1층,37.5359824,126.9713509
96,스타벅스 광화문D타워점,서울 종로구 종로3길 17 1층,37.5709221,126.9788972
97,스타벅스 길음역점,서울 성북구 정릉로 376,37.6019694,127.0252982
98,스타벅스 이수역점,서울 서초구 동작대로 112 한신 휴플러스 1층,37.486628,126.9827769
99,스타벅스 용산아이파크몰점,서울 용산구 한강대로23길 55 아이파크몰 서관 6층,37.5298245,126.9645796
100,스타벅스 신사역점,서울 강남구 도산대로 108 렉스타워 1층,37.516184,127.020617
101,스타벅스 상봉점,서울 중랑구 상봉로 131 상봉듀오트리스주상복합,37.5973459,127.0921726
102,스타벅스 여의도점,서울 영등포구 국제금융로2길 28,37.5240419,126.9244816
103,스타벅스 한남동R,서울 용산구 독서당로 94,37.5347739,127.0109257
104,스타벅스 종암DT점,서울 성북구 종암로 17,37.5919525,127.0360401
105,스타벅스 강북구청사거리점,서울 강북구 도봉로 365,37.6400187,127.0273281
106,스타벅스 강남2점,"서울 서초구 서초대로77길 27 1, 2층",37.5000875,127.0254909
107,스타벅스 중계역점,서울 노원구 동일로 1339 대한빌딩,37.6650797,127.0573201
108,스타벅스 양재강남빌딩R점,서울 강남구 남부순환로 2621,37.4852655,127.0367026
109,스타벅스 금호역점,서울 성동구 동호로 99,37.5479939,127.0153343
110,스타벅스 합정메세나몰점,서울 마포구 양화로 45 메세나폴리스 지하1층 161~164호,37.5499443,126.9137027
111,스타벅스 교대역점,"서울 서초구 서초중앙로 138 1,2층",37.4942069,127.0139398
112,스타벅스 인사점,서울 종로구 인사동길 14,37.5748116,126.9848367
113,스타벅스 뚝섬역,서울 성동구 아차산로 42,37.546432,127.0490419
114,스타벅스 한양대점,"서울 성동구 왕십리로 225 경희빌딩 1,2층",37.5572593,127.0420469
115,스타벅스 신림사거리점,"서울 관악구 남부순환로 1619 영일빌딩 1, 2층",37.4845718,126.9305043
116,스타벅스 선릉세화빌딩점,서울 강남구 테헤란로64길 18 세화빌딩 1층,37.5037508,127.0512045
117,스타벅스 이태원역점,서울 용산구 이태원로 188,37.5342727,126.9947897
118,스타벅스 사가정역점,서울 중랑구 면목로 310,37.5841989,127.0866148
119,스타벅스 마곡역,서울 강서구 공항대로 168 101~105호,37.5533338,126.8510294
120,스타벅스 올림픽공원남문점,서울 송파구 위례성대로 102 태평양파크빌라트 아케이드 1층,37.5132916,127.123111
121,스타벅스 약수역점,서울 중구 다산로 129,37.55539780000001,127.0107109
122,스타벅스 석촌역점,서울 송파구 백제고분로 358 우전빌딩 1층,37.5042838,127.106164
123,스타벅스 송파개롱역점,서울 송파구 오금로 420,37.4969567,127.1362521
124,스타벅스 여의도IFC점,서울 영등포구 국제금융로 10 1층,37.5249367,126.9252845
125,스타벅스 구파발역점,서울 은평구 진관2로 12 메이플카운티 2차 113~116호,37.6343271,126.9186635
126,스타벅스 안암역점,서울 성북구 고려대로 102-2,37.589116,127.0182146
127,스타벅스 센트럴시티점,서울 서초구 신반포로 176 센트럴시티 1층,37.5041299,127.0030692
128,스타벅스 오목교역점,서울 양천구 오목로 354,37.5245067,126.862375
129,스타벅스 금천독산점,서울 금천구 두산로 70 남서울현대지식산업센터 T로비층 108호,37.469824,126.89589
130,스타벅스 방배카페거리점,서울 서초구 방배중앙로 162,37.4934767,126.9865297
131,스타벅스 포이점,서울 강남구 논현로 88,37.4777792,127.0451187
132,스타벅스 강남오거리점,서울 강남구 봉은사로2길 39,37.5020667,127.0266414
133,스타벅스 엔터식스,서울 성동구 왕십리광장로 17 왕십리역사 엔터식스몰 지하1층,37.5620177,127.0383628
134,스타벅스 마로니에공원점,서울 종로구 대학로 116 1-2층,37.5814942,127.0023216
135,스타벅스 동교점,서울 마포구 월드컵북로 22 영준빌딩 1층,37.5568127,126.9199477
136,스타벅스 선릉역점,서울 강남구 테헤란로 334 LG화재빌딩 1층,37.5039056,127.048515
137,스타벅스 상암사보이시티,서울 마포구 월드컵북로54길 17,37.5812965,126.8885007
138,스타벅스 신림타임스트림점,서울 관악구 신림로 330 포도몰 1층 101호,37.4838735,126.9302332
139,스타벅스 강남비젼타워점,서울 강남구 테헤란로2길 27 비젼타워 1층,37.4986551,127.0287443
140,스타벅스 목동8단지점,서울 양천구 목동서로 299,37.520518,126.8688409
141,스타벅스 청담점,서울 강남구 도산대로 532 인희빌딩 1층,37.5243631,127.0515599
142,스타벅스 송파마천사거리DT점,서울 송파구 거마로 78,37.49964,127.1476597
143,스타벅스 동부이촌동,서울 용산구 이촌로 198,37.5210945,126.9690312
144,스타벅스 문래역점,서울 영등포구 당산로 34,37.517425,126.8964798
145,스타벅스 강남구청역점,서울 강남구 선릉로 669 웰빙센터 1층,37.5165849,127.0412433
146,스타벅스 망원한강공원점,서울 마포구 망원동 205-8 2층,37.5533802,126.8966153
147,스타벅스 마포염리점,서울 마포구 독막로 311,37.5438755,126.9476798
148,스타벅스 서교점,서울 마포구 양화로 78,37.5513453,126.9169075
149,스타벅스 중랑구청점,서울 중랑구 신내로 72,37.5977511,127.1034813
150,스타벅스 고대점,서울 성북구 고려대로24길 51 1층 & 2층,37.5838912,127.0296926
151,스타벅스 신논현역점,서울 서초구 강남대로 483,37.5053019,127.0236395
152,스타벅스 마곡나루공원,서울 강서구 마곡중앙5로 47,37.55319679999999,126.8298352
153,스타벅스 쌍문역점,서울 도봉구 도봉로 480,37.6483224,127.0348734
154,스타벅스 노원KT점,서울 노원구 노해로 502,37.6543814,127.0636656
155,스타벅스 혜화역점,"서울 종로구 대학로12길 4 1,2층",37.5824779,127.002185
156,스타벅스 학여울역점,서울 강남구 영동대로 215,37.4979557,127.0685027
157,스타벅스 미아뉴타운점,서울 강북구 삼양로 161 행전빌딩,37.6260077,127.0215587
158,스타벅스 연신내역사거리점,서울 은평구 통일로 842,37.6186243,126.9220434
159,스타벅스 선릉동신빌딩R점,서울 강남구 테헤란로 409,37.5053116,127.0503634
160,스타벅스 송파위례,서울 송파구 위례광장로 230,37.4797341,127.1440951
161,스타벅스 문정법원로R,서울 송파구 송파대로 201,37.4856859,127.1193237
162,스타벅스 잠실시그마타워점,서울 송파구 올림픽로 289,37.5145667,127.1024928
163,스타벅스 가로수길점,서울 강남구 논현로175길 94 임도빌딩 1층,37.5231593,127.021625
164,스타벅스 오류동역점,서울 구로구 경인로 216 1층,37.4961687,126.8448492
165,스타벅스 아시아선수촌점,서울 송파구 백제고분로 69 애플타워 175,37.5104879,127.078989
166,스타벅스 구산역점,서울 은평구 연서로 146,37.6117171,126.9176171
167,스타벅스 천호역점,서울 강동구 천호대로 1012 태승빌딩 1층,37.5378682,127.1269387
168,스타벅스 학동역점,서울 강남구 논현로 704,37.5145746,127.0307537
169,스타벅스 수유역점,서울 강북구 도봉로 342,37.6380167,127.026135
170,스타벅스 당산점,서울 영등포구 양평로 64 1층,37.5350961,126.8999555
171,스타벅스 노량진동점,서울 동작구 노량진로 190 고려교육타워 어바니엘한강 101~105호,37.5131423,126.9465461
172,스타벅스 종로관수점,서울 종로구 삼일대로20길 13,37.5697113,126.9886559
173,스타벅스 송파구청,서울 송파구 오금로 87,37.5145732,127.1074043
174,스타벅스 압구정R점,서울 강남구 언주로 861,37.5273669,127.0330761
175,스타벅스 마곡GMG,서울 강서구 마곡중앙6로 16 117~120호,37.55319679999999,126.8298352
176,스타벅스 미아사거리역점,서울 강북구 도봉로 32,37.62157819999999,127.0297189
177,스타벅스 문정하비오,서울 송파구 송파대로 111 204동 104~107호,37.4811895,127.1237787
178,스타벅스 신당역사거리점,서울 중구 다산로 258,37.5658043,127.0165817
179,스타벅스 숭실대입구역,서울 동작구 상도로 354,37.4968346,126.9527123
180,스타벅스 문래동점,서울 영등포구 선유로 64 대창타운빌 1층,37.5196292,126.8896882
181,스타벅스 서울교대점,서울 서초구 서초중앙로 64 1층,37.4873998,127.0151589
182,스타벅스 서교동사거리,서울 마포구 양화로 105,37.5533761,126.9185644
183,스타벅스 여의도공원R점,서울 영등포구 여의공원로 101,37.5292309,126.9248721
184,스타벅스 목동역점,서울 양천구 목동로 203,37.5266578,126.8637816
185,스타벅스 가양역점,서울 강서구 양천로 476,37.561561,126.8532562
186,스타벅스 역삼역점,서울 강남구 테헤란로 145 우신빌딩 1층,37.5005648,127.0352556
187,스타벅스 낙성대역점,서울 관악구 남부순환로 1908,37.4776649,126.9611926
188,스타벅스 잠실대교남단R점,서울 송파구 송파대로 570 타워730 1층,37.5157956,127.0988566
189,스타벅스 연희동점,서울 서대문구 연희로 97,37.5667633,126.9305031
190,스타벅스 공덕점,서울 마포구 마포대로 130,37.5459128,126.9529563
191,스타벅스 삼청동점,서울 종로구 삼청로 111-1 1층,37.5811875,126.9811811
192,스타벅스 서울대역,서울 관악구 남부순환로 1817,37.4815987,126.9522003
193,스타벅스 서래마을입구점,서울 서초구 서래로 48,37.49922970000001,126.9985484
194,스타벅스 합정폴리스R점,서울 마포구 양화로 45,37.5489656,126.9134767
195,스타벅스 서초역점,서울 서초구 반포대로 118 1층,37.4906229,127.0085975
196,스타벅스 둔촌동점,서울 강동구 양재대로 1303 평원빌딩 1층,37.5227235,127.1339426
197,스타벅스 선정릉역,서울 강남구 봉은사로 407,37.51075489999999,127.0445597
198,스타벅스 도곡공원점,서울 강남구 도곡로 205,37.493073,127.0412545
199,스타벅스 구의역,서울 광진구 아차산로 373,37.5369745,127.0840194
200,스타벅스 동묘앞역점,"서울 종로구 종로 344 101,201호",37.5727002,127.0160721
201,스타벅스 가산디지털점,서울 금천구 가산디지털1로 168 우림라이온스벨리 B동 1층,37.4800992,126.8826202
202,스타벅스 청담공원점,서울 강남구 학동로 506 보라티알 빌딩 1층,37.5048495,127.0658238
203,스타벅스 가락본동점,서울 송파구 송파대로30길 13,37.4948203,127.1187978
204,스타벅스 순천향입구점,서울 용산구 대사관로 67,37.5333841,127.0056296
205,스타벅스 금천시흥점,서울 금천구 시흥대로 164,37.4488601,126.903246
206,스타벅스 독산사거리점,서울 금천구 시흥대로 426,37.4715113,126.8987752
207,스타벅스 황학사거리점,서울 성동구 왕십리로 410 센트라스,37.5658389,127.0296943
208,스타벅스 국립중앙의료원점,서울 중구 을지로 251,37.566516,127.0062376
209,스타벅스 압구정,서울 강남구 압구정로30길 17,37.5262829,127.0295602
210,스타벅스 영등포구청역점,서울 영등포구 국회대로 558,37.5275785,126.895872
211,스타벅스 문정로데오점,서울 송파구 동남로 141,37.491868,127.1262565
212,스타벅스 태릉입구역DT,서울 노원구 화랑로 469,37.619211,127.0792994
213,스타벅스 압구정역점,"서울 강남구 압구정로 170 관영빌딩 지하1층, 1층",37.526735,127.0281047
214,스타벅스 학동사거리,서울 강남구 도산대로 328,37.52236449999999,127.0379543
215,스타벅스 종로3가점,서울 종로구 종로 113-1 1~4층,37.5705527,126.9902055
216,스타벅스 숙대입구역점,서울 용산구 한강대로 291 지하 1~3층,37.5442008,126.9719246
217,스타벅스 구로디지털타워점,서울 구로구 디지털로32길 30,37.4833471,126.8965154
218,스타벅스 상일동점,"서울 강동구 상일로10길 36 1,2층",37.5530573,127.1724614
219,스타벅스 종로평창점,서울 종로구 평창12길 3,37.60614899999999,126.9672128
220,스타벅스 선유동이레빌딩점,서울 영등포구 선유동2로 57 이레빌딩,37.5338151,126.8969784
221,스타벅스 송파사거리점,서울 송파구 송파대로 386,37.5022465,127.1103401
222,스타벅스 방배역점,서울 서초구 방배로 84,37.48193,126.9976464
223,스타벅스 상도역점,서울 동작구 상도로37길 1,37.5031939,126.9484286
224,스타벅스 상수역점,서울 마포구 독막로 88,37.5474817,126.9232158
225,스타벅스 남가좌사거리점,서울 서대문구 거북골로 84 104동,37.5765117,126.9197277
226,스타벅스 우장산역,"서울 강서구 강서로 267 송화쇼핑센터 1층,지하층",37.5495626,126.8359438
227,스타벅스 사당로데오점,서울 서초구 방배천로 5-4,37.4772752,126.9821605
228,스타벅스 동여의도점,서울 영등포구 여의도동 43-4 롯데캐슬 아이비 1층 122호,37.5200722,126.9318875
229,스타벅스 신림점,서울 관악구 신림로 355-1,37.48605870000001,126.9291581
230,스타벅스 이수역사거리점,서울 서초구 서초대로 3-4,37.4860394,126.9830638
231,스타벅스 월계역점,서울 노원구 초안산로2라길 26 104~106호,37.63115310000001,127.0577021
232,스타벅스 삼성역섬유센터R점,서울 강남구 테헤란로 518,37.5075512,127.060561
233,스타벅스 연신내점,서울 은평구 통일로 867,37.6201922,126.9198809
234,스타벅스 북촌로점,서울 종로구 북촌로4길 23 1층~3층,37.5793885,126.9864543
235,스타벅스 신촌명물거리점,서울 서대문구 명물길 24 1~5층,37.5577614,126.9381244
236,스타벅스 미아역점,서울 강북구 도봉로 196 1층,37.6260494,127.0266005
237,스타벅스 경희대삼거리점,서울 동대문구 회기로 141,37.59153140000001,127.0520171
238,스타벅스 주얼리시티점,서울 종로구 종로 183 주얼리시티 1층,37.571393,126.9986634
239,스타벅스 갤러리아팰리스점,서울 송파구 올림픽로 212 갤리러아팰리스 1층,37.5110359,127.093967
240,스타벅스 강남교보타워R점,서울 서초구 강남대로 465 1층,37.5037208,127.0240967
241,스타벅스 중앙대점,서울 동작구 흑석로 75-1,37.5069327,126.9581247
242,스타벅스 차병원사거리점,서울 강남구 봉은사로 213,37.50800400000001,127.0353584
243,스타벅스 신촌오거리점,서울 마포구 신촌로16길 10,37.555138,126.9346633
244,스타벅스 서울역사점,서울 용산구 동자동 43-205,37.5490645,126.9704658
245,스타벅스 중랑역점,서울 중랑구 망우로30길 3,37.5930326,127.0747358
246,스타벅스 아차산역,서울 광진구 천호대로 676,37.5506271,127.0899534
247,스타벅스 정부서울청사R점,서울 종로구 새문안로5가길 28 광화문플래티넘 1층,37.5744107,126.9735709
248,스타벅스 종암점,서울 성북구 종암로 122,37.6011247,127.0338991
249,스타벅스 강남대로논현R점,서울 서초구 강남대로85길 5,37.5073277,127.0225816
250,스타벅스 창동이마트점,서울 도봉구 노해로65길 4,37.6516821,127.046933
251,스타벅스 광나루,서울 광진구 아차산로 607,37.5473667,127.106064
252,스타벅스 성수낙낙,서울 성동구 광나루로8길 31 성수SKV1 2동 1층 101호,37.5475127,127.064007
253,스타벅스 도산가로수길점,서울 강남구 도산대로 134 2층,37.5172519,127.0233424
254,스타벅스 상암디지털큐브점,서울 마포구 상암산로 34 1층,37.576088,126.889136
255,스타벅스 신압구정점,서울 강남구 언주로174길 29,37.5280809,127.0364236
256,스타벅스 등촌,서울 강서구 공항대로 329 1층,37.5582043,126.8443392
257,스타벅스 교대점,서울 서초구 서초중앙로 118 KAIS빌딩,37.4923779,127.0142181
258,스타벅스 길동역점,서울 강동구 양재대로 1487,37.5386789,127.1400495
259,스타벅스 뱅뱅사거리점,서울 강남구 강남대로 282,37.4885277,127.032471
260,스타벅스 마포용강동점,서울 마포구 토정로 295,37.5411857,126.9422092
261,스타벅스 한성대입구역점,서울 성북구 성북로 11,37.5889972,127.0048925
262,스타벅스 삼성교점,서울 강남구 영동대로86길 12 동남유화빌딩1층,37.5078813,127.0652928
263,스타벅스 상왕십리역,서울 성동구 왕십리로 382,37.5649226,127.0279499
264,스타벅스 가락시장역점,서울 송파구 중대로 121 롯데캐슬 파인힐1층,37.494324,127.1213465
265,스타벅스 양천향교역,서울 강서구 강서로 463,37.5535944,126.8412653
266,스타벅스 논현역점,서울 서초구 강남대로 557,37.51162010000001,127.0205982
267,스타벅스 보라매대교점,서울 관악구 보라매로3길 23 대교눈높이보라매 센터 1층,37.49099,126.925521
268,스타벅스 서울타워점,서울 용산구 남산공원길 105 YTN서울타워 1층,37.5511694,126.9882266
269,스타벅스 강동역점,서울 강동구 천호대로 1089,37.5357882,127.1332568
270,스타벅스 영동2교점,서울 서초구 논현로 139 대흥빌딩,37.481962,127.0425724
271,스타벅스 서강광흥창역점,서울 마포구 서강로 69,37.5493766,126.9316559
272,스타벅스 가산디지털단지역점,서울 금천구 벚꽃로 298,37.4813244,126.8837789
273,스타벅스 명일역점,서울 강동구 양재대로 1647,37.5525446,127.1437615
274,스타벅스 금천구청역점,서울 금천구 시흥대로73길 67 엠타워 112~115호,37.4568736,126.8978
275,스타벅스 등촌역점,"서울 양천구 공항대로 566 1,2층",37.5488905,126.8680693
276,스타벅스 한티역점,서울 강남구 도곡로 408 디마크빌딩 101호,37.4966281,127.055214
277,스타벅스 대우재단빌딩점,서울 중구 퇴계로 18,37.5588865,126.9847835
278,스타벅스 남부터미널2점,서울 서초구 효령로 274,37.4843561,127.0142016
279,스타벅스 올림픽평화의문점,서울 송파구 위례성대로 38,37.5156426,127.1164819
280,스타벅스 압구정미소점,서울 강남구 논현로 841 1층,37.5240211,127.0278937
281,스타벅스 을지로4가역점,"서울 중구 을지로 170 118,119,202호",37.5663459,126.9967756
282,스타벅스 이촌점,서울 용산구 이촌로 276,37.5186054,126.9772713
283,스타벅스 마포일진빌딩점,서울 마포구 마포대로 45 일진빌딩 1층,37.54043,126.94632
284,스타벅스 신당역,서울 중구 퇴계로 385 1층,37.565296,127.0143007
285,스타벅스 동대입구역점,서울 중구 장충단로 166,37.5595925,127.0061416
286,스타벅스 은행사거리점,"서울 노원구 중계로 217 중흥빌딩 103,203호",37.6504634,127.0759752
287,스타벅스 여의도KBS R점,서울 영등포구 의사당대로 26,37.5265758,126.9181878
288,스타벅스 구로디지털로점,서울 구로구 디지털로33길 11 에이스테크노타워 8차 1층,37.4851811,126.8951168
289,스타벅스 방이역점,서울 송파구 마천로 53 1~2층,37.5085169,127.1266393
290,스타벅스 명동중앙로점,서울 중구 명동길 60,37.56369919999999,126.9857659
291,스타벅스 강남GT타워점,서울 서초구 서초대로 411 GT타워,37.4978774,127.0260779
292,스타벅스 상암MBC점,서울 마포구 성암로 267 MBC신사옥 C1 경영센터,37.5800693,126.8914327
293,스타벅스 강서구청사거리점,서울 강서구 화곡로 350 1층 104~107호,37.5547254,126.8520968
294,스타벅스 연대동문점,서울 서대문구 성산로 565 연세재단 Y빌딩,37.6252952,127.0261504
295,스타벅스 효창공원앞역점,서울 용산구 효창동 287,37.5417318,126.9613055
296,스타벅스 영등포KT점,서울 영등포구 영중로 119,37.5267921,126.9047058
297,스타벅스 여의도호성점,서울 영등포구 여의대방로65길 24 호성빌딩1층,37.5204021,126.9292806
298,스타벅스 대학로점,서울 종로구 대학로 57 홍익대학교 대학로캠퍼스 1층,37.5765072,127.0015243
299,스타벅스 충무로역점,서울 중구 퇴계로 197 충무빌딩 1층,37.561391,126.9939127
300,스타벅스 국회의사당역,서울 영등포구 의사당대로 8,37.5278307,126.9168822
301,스타벅스 염창역점,서울 강서구 공항대로 627 대신빌딩 1층,37.547251,126.8745264
302,스타벅스 아크로힐스논현점,"서울 강남구 봉은사로 304 금강빌딩 1,2층",37.5089596,127.0404373
303,스타벅스 방배로점,서울 서초구 방배로 52,37.4794494,126.9993484
304,스타벅스 강남구청정문점,서울 강남구 학동로 419,37.5182675,127.0459628
305,스타벅스 내방역점,서울 서초구 방배로 184 1~2층,37.4899917,126.9924614
306,스타벅스 독립문역점,서울 종로구 송월길 155,37.57070179999999,126.9647646
307,스타벅스 송파헬리오시티점,서울 송파구 송파대로 345 헬리오시티 단지상가 3A 16호~21호,37.4978576,127.1082524
308,스타벅스 중화역점,"서울 중랑구 봉화산로 35 1,2층",37.6016921,127.0782571
309,스타벅스 마포아크로점,서울 마포구 마포대로 68 마포 아크로타워 118호,37.5413152,126.9489731
310,스타벅스 당산대로점,서울 영등포구 양평로 22,37.5391688,126.894811
311,스타벅스 논현역사거리점,서울 강남구 강남대로 538,37.5101814,127.0222548
312,스타벅스 역삼초교사거리점,서울 강남구 역삼로 123,37.4941005,127.0330019
313,스타벅스 청계산입구역,서울 서초구 청계산로 203,37.4473672,127.0553225
314,스타벅스 성대입구점,서울 종로구 창경궁로 235,37.582923,126.9983545
315,스타벅스 스탈릿대치R점,서울 강남구 남부순환로 2947 대원빌딩,37.5076546,127.0627407
316,스타벅스 경희대점,서울 동대문구 경희대로 16-1,37.5928812,127.0528085
317,스타벅스 방배,서울 서초구 방배로 211,37.491914,126.9904974
318,스타벅스 서초우성사거리점,서울 서초구 강남대로 343,37.4934821,127.0292328
319,스타벅스 을지병원사거리점,서울 강남구 논현로 752,37.5191246,127.0286314
320,스타벅스 목동오목로점,서울 양천구 오목로 279,37.5259231,126.868438
321,스타벅스 선유도역점,서울 영등포구 양평로 115,37.537268,126.8945943
322,스타벅스 목동점,서울 양천구 목동서로 67,37.5363389,126.878533
323,스타벅스 월곡역점,서울 성북구 화랑로 76 1층 101-1호,37.6017142,127.0404475
324,스타벅스 파라스파라서울점,서울 강북구 삼양로 689,37.6370282,127.0170402
325,스타벅스 외대정문점,서울 동대문구 이문로 93,37.5953303,127.0592389
326,스타벅스 동대문두타점,서울 중구 장충단로 275,37.5689316,127.0087977
327,스타벅스 숭실대점,서울 동작구 사당로 4,37.4869654,126.9663286
328,스타벅스 청량리역사점,서울 동대문구 왕산로 214 6층,37.5792928,127.0479007
329,스타벅스 남부터미널점,서울 서초구 서초중앙로 26 서초동 삼성 래미안 아파트 유니빌1층,37.4847886,127.0168446
330,스타벅스 당산역사거리점,서울 영등포구 양평로 47,37.5338262,126.9009868
331,스타벅스 외대점,서울 동대문구 휘경로 12-1,37.595688,127.0613927
332,스타벅스 현대디큐브2F,서울 구로구 경인로 662,37.5084321,126.8887332
333,스타벅스 건국클래식,"서울 광진구 능동로 90 더클래식500 1층 C102,103호",37.5384449,127.0710527
334,스타벅스 신촌역점,서울 서대문구 신촌로 73 1층,37.5562647,126.9345138
335,스타벅스 자양점,서울 광진구 능동로 50 이튼타워리버2차 상가 108호,37.5354569,127.0691282
336,스타벅스 송파아이파크,서울 송파구 법원로 55,37.4797951,127.1217993
337,스타벅스 하이브랜드점,서울 서초구 매헌로 16 하이브랜드 리빙관 101호,37.4631657,127.0365398
338,스타벅스 코엑스몰점,서울 강남구 영동대로 513 뉴코엑스몰 103호,37.51168500000001,127.0593394
339,스타벅스 숙대점,서울 용산구 청파로47길 57 1~3층,37.5445812,126.9671959
340,스타벅스 명동길점,서울 중구 명동10길 41,37.5620375,126.9858586
341,스타벅스 자양사거리,서울 광진구 아차산로 355 타워 더 모스트 아크로텔 1층,37.5371312,127.0825801
342,스타벅스 구파발사거리점,서울 은평구 진관3로 21 은평엘크루 101동 105-108호,37.6394858,126.9189884
343,스타벅스 명일이마트점,서울 강동구 동남로75길 5 별관 주차장,37.5539649,127.1559881
344,스타벅스 미아점,서울 성북구 동소문로 314,37.6075807,127.0293034
345,스타벅스 도곡역점,서울 강남구 남부순환로 2909,37.4921442,127.0573977
346,스타벅스 목동10단지점,서울 양천구 목동서로 401,37.5153689,126.8595955
347,스타벅스 SSG마켓도곡R점,서울 강남구 언주로30길 57 타워팰리스 F동 지하1층,37.488472,127.054028
348,스타벅스 서초역이화빌딩점,서울 서초구 반포대로21길 3,37.4882539,127.0090099
349,스타벅스 국기원사거리점,서울 강남구 테헤란로 125,37.499549,127.0316604
350,스타벅스 한국프레스센터점,서울 중구 세종대로 124 Hi 1층,37.5673811,126.977859
351,스타벅스 서초법원,서울 서초구 서초대로 274,37.4927671,127.0117898
352,스타벅스 장위뉴타운점,"서울 성북구 장월로38길 4 1,2층",37.6092787,127.047608
353,스타벅스 광운대점,서울 노원구 석계로 104,37.6231479,127.0607009
354,스타벅스 서강대점,서울 마포구 백범로 23 거구장컨벤션웨딩 1층,37.5524589,126.9378262
355,스타벅스 을지로내외빌딩R점,서울 중구 을지로 51 1층,37.5664536,126.9836673
356,스타벅스 여의도화재보험점,서울 영등포구 국제금융로6길 38,37.5213452,126.9259819
357,스타벅스 천호대로길동점,서울 강동구 천호대로 1131 거산유팰리스,37.538319,127.14051
358,스타벅스 강남우성점,서울 강남구 강남대로 328 강남역쉐르빌,37.4923816,127.0309489
359,스타벅스 남영동,서울 용산구 한강대로 275,37.5428313,126.9722421
360,스타벅스 종로관철점,서울 종로구 종로12길 21 2층,37.5690496,126.9859854
361,스타벅스 서울아트센터점,서울 서초구 남부순환로 2395 호경빌딩 1층,37.5115262,127.0520447
362,스타벅스 홍대역8번출구점,서울 마포구 양화로 166,37.5567005,126.9241437
363,스타벅스 구로고척점,서울 구로구 경인로 387,37.4970129,126.8631373
364,스타벅스 묵동점,서울 중랑구 동일로 952 로프트원오피스텔 1층,37.6153431,127.0766463
365,스타벅스 적선점,서울 종로구 새문안로5길 55 노스게이트빌딩 1층,37.5750907,126.9739521
366,스타벅스 압구정로점,서울 강남구 압구정로42길 32 1층,37.5268082,127.0347226
367,스타벅스 강남대로신사점,서울 서초구 강남대로 595,37.5148246,127.01945
368,스타벅스 서초구청점,서울 서초구 남부순환로 2557,37.4844008,127.0300468
369,스타벅스 대치은마사거리점,서울 강남구 도곡로 457,37.4989728,127.060172
370,스타벅스 구로에이스점,서울 구로구 디지털로 285 에이스트윈타워1 103호,37.4844847,126.8945479
371,스타벅스 명동입구점,서울 중구 남대문로 68-1,37.5631995,126.9822547
372,스타벅스 동국대점,서울 중구 서애로1길 11,37.5609063,126.9991003
373,스타벅스 올림픽대교북단,서울 광진구 광나루로 608,37.5411292,127.0952402
374,스타벅스 서강대흥역점,서울 마포구 백범로 89,37.548277,126.9417219
375,스타벅스 대한상공회의소R점,서울 중구 세종대로 39,37.5606707,126.9737639
376,스타벅스 발산역사거리점,서울 강서구 공항대로 248,37.5533338,126.8510294
377,스타벅스 잠실푸르지오월드점,서울 송파구 올림픽로35가길 9,37.5175312,127.103575
378,스타벅스 강남에비뉴점,서울 서초구 서초대로77길 62 강남역아이파크 1층 B102~B105호,37.5027113,127.0238406
379,스타벅스 삼성점,서울 강남구 테헤란로 443 애플트리타워 1층,37.5069114,127.0555833
380,스타벅스 삼선교점,서울 성북구 동소문로 10 1~2층,37.588696,127.0073207
381,스타벅스 연세종합관점,서울 서대문구 연세로 50-1,37.564089,126.9389809
382,스타벅스 중구저동점,서울 중구 수표로 34,37.5643293,126.9903246
383,스타벅스 서울세관사거리점,서울 강남구 언주로 650 한국건설기술인협회,37.51489280000001,127.0357562
384,스타벅스 샛강역점,서울 영등포구 여의대방로 376,37.5035749,126.9192153
385,스타벅스 구로NC,서울 구로구 구로중앙로 152,37.5012056,126.8827953
386,스타벅스 서울역서부점,서울 용산구 만리재로 202 풍림아이원 1층,37.5548694,126.9684152
387,스타벅스 등촌대로점,서울 강서구 공항대로 543 센터스퀘어 1층,37.5505493,126.8663356
388,스타벅스 올림픽아파트점,서울 송파구 양재대로 1220,37.50885,127.1247641
389,스타벅스 선릉로점,서울 강남구 선릉로93길 22 대흥빌딩 1층,37.5049945,127.0467617
390,스타벅스 무교동점,서울 중구 무교로 21 코오롱빌딩 1층,37.5772001,126.9738307
391,스타벅스 경복궁사거리점,서울 종로구 율곡로 6 트윈트리타워 B동 101호,37.5751853,126.9797383
392,스타벅스 반포역점,서울 서초구 신반포로 257,37.5094191,127.0130498
393,스타벅스 교대법원점,서울 서초구 서초중앙로 164 1층,37.4963206,127.0133771
394,스타벅스 굽은다리역점,서울 강동구 양재대로 1568,37.5453366,127.1433679
395,스타벅스 역삼대로점,서울 강남구 테헤란로 211 한국고등교육재단빌딩1층,37.5018296,127.0393238
396,스타벅스 상일동역점,서울 강동구 고덕로 399,37.5555874,127.1475975
397,스타벅스 애오개역점,서울 마포구 마포대로 201,37.5521804,126.9554999
398,스타벅스 은평이마트점,서울 은평구 은평로 111 1층,37.60077709999999,126.9204992
399,스타벅스 이수자이점,서울 동작구 사당로 300,37.4843975,126.9804278
400,스타벅스 코엑스사거리점,서울 강남구 영동대로 616,37.5153516,127.0601103
401,스타벅스 을지로2가점,서울 중구 삼일대로 358,37.56654899999999,126.9878497
402,스타벅스 천호이마트,서울 강동구 천호대로 1015-14,37.5389169,127.1252133
403,스타벅스 동숭로아트점,서울 종로구 동숭길 110,37.5829419,127.0038862
404,스타벅스 서초동점,서울 서초구 남부순환로339길 64 현우빌딩1층,37.4858915,127.0215742
405,스타벅스 경희궁로점,서울 종로구 새문안로3길 15,37.5716658,126.9722875
406,스타벅스 하이테크시티점,서울 영등포구 경인로 775 에이스하이테크시티 1-105호,37.5144447,126.8987734
407,스타벅스 방배다이치빌딩점,서울 서초구 방배로 114,37.4843008,126.9960781
408,스타벅스 현대디큐브B2,서울 구로구 경인로 662 지하2층,37.5084321,126.8887332
409,스타벅스 아현역점,서울 서대문구 북아현동 1015 e편한세상신촌4단지 상가 1층,37.5584231,126.9546193
410,스타벅스 용산리첸시아점,서울 용산구 백범로 341 102동 1층,37.5380677,126.9676185
411,스타벅스 연세백양로점,서울 서대문구 연세로 50 지하1층,37.565784,126.938572
412,스타벅스 시청플러스점,서울 중구 을지로 19 삼성화재삼성빌딩 1층,37.5662571,126.9799416
413,스타벅스 상암YTN점,서울 마포구 상암산로 76 YTN뉴스퀘어 1층,37.5791989,126.892349
414,스타벅스 구역삼사거리점,서울 강남구 논현로 401,37.49589570000001,127.0388933
415,스타벅스 아크플레이스,서울 강남구 테헤란로 142,37.4996847,127.0349215
416,스타벅스 센트럴F1점,서울 서초구 신반포로 176,37.5041299,127.0030692
417,스타벅스 남성역점,서울 동작구 사당로 219,37.4841211,126.9726489
418,스타벅스 명동역점,서울 중구 퇴계로 101,37.5608244,126.9830929
419,스타벅스 역삼럭키점,서울 강남구 도곡로 183,37.4921956,127.039393
420,스타벅스 가산에스케이점,서울 금천구 가산디지털1로 171,37.4806318,126.8805702
421,스타벅스 청담영동대로점,서울 강남구 영동대로 720 원일빌딩 1층,37.5002389,127.0659628
422,스타벅스 가양이마트점,서울 강서구 양천로 559 1층,37.5578966,126.8622978
423,스타벅스 목동7단지점,서울 양천구 목동서로 213 세션비전프라자 1층 107호,37.5279765,126.8706029
424,스타벅스 뉴코아강남점,서울 서초구 잠원로 69 킴스클럽 1층,37.5102313,127.0069616
425,스타벅스 황학캐슬점,서울 중구 청계천로 400 이마트 1층,37.57132070000001,127.0227761
426,스타벅스 소공로북창점,"서울 중구 세종대로18길 32 1층,2층",37.5636861,126.9789237
427,스타벅스 마포경찰서후문점,서울 마포구 마포대로 173-14,37.5498579,126.9544187
428,스타벅스 가산그레이트점,서울 금천구 디지털로9길 32 갑을 그레이트 밸리 1층,37.4794444,126.8875
429,스타벅스 대치점,서울 강남구 도곡로 511,37.499591,127.0622226
430,스타벅스 삼성현대힐점,서울 강남구 삼성로 605,37.5134507,127.0527081
431,스타벅스 몽촌토성역점,서울 송파구 위례성대로 6,37.5127868,127.1166466
432,스타벅스 이마빌딩점,서울 종로구 종로1길 42,37.5738637,126.9789715
433,스타벅스 용산해링턴스퀘어점,서울 용산구 서빙고로 17,37.52669119999999,126.998249
434,스타벅스 스페이스본점,"서울 종로구 사직로8길 4 201동 109,110호",37.5743822,126.9688506
435,스타벅스 대치한티,서울 강남구 선릉로 324,37.4984818,127.052066
436,스타벅스 논현힐탑점,서울 강남구 논현로 648,37.5115577,127.032262
437,스타벅스 서초파라곤점,서울 서초구 서초대로74길 29 서초파라곤 제1층 제106호,37.4949048,127.027432
438,스타벅스 문화일보점,"서울 중구 새문안로 22 문화일보 1, 2층",37.567088,126.96859
439,스타벅스 용산파크타워점,서울 용산구 서빙고로 67,37.5218624,126.9947508
440,스타벅스 가든파이브,서울 송파구 충민로 10 가든파이브툴,37.4782249,127.1193622
441,스타벅스 종로수송점,서울 종로구 종로5길 30,37.5716169,126.9806844
442,스타벅스 르네상스사거리점,서울 강남구 테헤란로 306 카이트타워 1층,37.5025901,127.044275
443,스타벅스 건대스타시티,"서울 광진구 아차산로 272 1층 19,20,21호",37.5376127,127.0726183
444,스타벅스 중곡점,서울 광진구 천호대로 549 1층,37.5575666,127.079334
445,스타벅스 연대점,서울 서대문구 연세로 35 2~4층,37.5586875,126.9366988
446,스타벅스 삼성도심공항점,서울 강남구 테헤란로87길 33 지상 1층,37.5097863,127.0579134
447,스타벅스 새문안로점,"서울 종로구 새문안로 92 광화문 오피시아빌딩 1, 2층",37.5696602,126.9748903
448,스타벅스 국회대로점,서울 영등포구 국회대로 786,37.53026,126.9195488
449,스타벅스 올림픽훼미리점,서울 송파구 중대로 68 훼미리 샤르망 1층,37.4905784,127.1177463
450,스타벅스 영등포시장교차로점,서울 영등포구 영중로 45,37.5204239,126.904446
451,스타벅스 숭례문북창점,서울 중구 세종대로12길 12,37.5616151,126.9768612
452,스타벅스 천호사거리,서울 강동구 올림픽로 651,37.5397441,127.1232777
453,스타벅스 서초중앙로점,"서울 서초구 서초중앙로 225 1,2층",37.5016276,127.011526
454,스타벅스 충정타워점,서울 서대문구 서소문로 21 1층,37.5598507,126.964065
455,스타벅스 여의도의사당점,서울 영등포구 국회대로74길 12 남중빌딩 1층,37.5496468,126.9090878
456,스타벅스 가산브이타워점,서울 금천구 가산디지털1로 128,37.4771592,126.8837142
457,스타벅스 큰길타워,서울 강남구 테헤란로 223 큰길타워 1층,37.5022291,127.0405658
458,스타벅스 서소문로점,서울 중구 서소문로 120,37.5612786,126.9693213
459,스타벅스 여의도ABL타워점,서울 영등포구 의사당대로 147 여의도ABL타워 1층,37.518735,126.927716
460,스타벅스 이대ECC점,서울 서대문구 대현동 11-1 이화여자대학교 B415호,37.5618588,126.9468339
461,스타벅스 동숭길입구점,서울 종로구 대학로 146 혜화동씨티밸리 101호,37.5842128,127.0020237
462,스타벅스 대치역점,서울 강남구 남부순환로 2936 윈플러스상가 107호,37.4933099,127.0619031
463,스타벅스 연세세브란스점,서울 중구 통일로 10,37.5570572,126.9736211
464,스타벅스 회현역점,서울 중구 퇴계로 72 리더스뷰남산 1층,37.5592302,126.9806639
465,스타벅스 포스코사거리,서울 강남구 테헤란로 505 화진빌딩,37.5075307,127.0574271
466,스타벅스 을지로한국빌딩점,서울 중구 을지로 50 1층,37.5655809,126.9832977
467,스타벅스 충정로역점,서울 서대문구 충정로3가 470,37.56113930000001,126.9629482
468,스타벅스 예술의전당점,서울 서초구 남부순환로323길 1 1층,37.4810928,127.0134801
469,스타벅스 목동파라곤점,서울 양천구 목동서로 155 1층,37.5293136,126.8751264
470,스타벅스 소공로점,서울 중구 남대문로7길 19 삼영빌딩 1층,37.5637273,126.9807681
471,스타벅스 역삼아레나빌딩점,서울 강남구 언주로 425,37.5010689,127.0430285
472,스타벅스 역삼포스코점,서울 강남구 테헤란로 134 포스코 P&S타워 1층,37.4993385,127.0337927
473,스타벅스 대치삼성프라자점,서울 강남구 영동대로 237 1층,37.5003097,127.0669613
474,스타벅스 성수이마트,서울 성동구 뚝섬로 379,37.5399389,127.0531674
475,스타벅스 광화문우체국점,서울 종로구 종로 6 1층,37.5698014,126.978084
476,스타벅스 숭례문점,서울 중구 세종대로 17 와이즈타워 1층,37.5585967,126.9732661
477,스타벅스 수서역사거리점,서울 강남구 광평로 280,37.4872829,127.1031088
478,스타벅스 태평로점,서울 중구 세종대로 72 대영빌딩 1층,37.5662021,127.0135216
479,스타벅스 마포이마트점,서울 마포구 백범로 212 대우월드마크 공덕이마트2층,37.54322,126.951576
480,스타벅스 여의도파크원R,서울 영등포구 여의대로 108,37.5237584,126.9225703
481,스타벅스 을지로삼화타워점,서울 중구 을지로5길 16 1층,37.5669111,126.9848926
482,스타벅스 압구정윤성빌딩점,서울 강남구 논현로 834,37.5227934,127.0286009
483,스타벅스 신사역성일빌딩점,서울 강남구 강남대로 584 성일빌딩 1층,37.5137562,127.0205689
484,스타벅스 광장점,서울 광진구 아차산로 537-17 광장힐스테이트아파트 상가동 14호,37.5433454,127.0997083
485,스타벅스 신촌아트레온점,"서울 서대문구 신촌로 129 1,2층",37.5564819,126.940327
486,스타벅스 여의도IFC몰(L1)R점,서울 영등포구 국제금융로 10,37.5249367,126.9252845
487,스타벅스 목동트라팰리스점,서울 양천구 오목로 299,37.5257763,126.8703272
488,스타벅스 봉은사로선정릉점,서울 강남구 봉은사로 446,37.5112773,127.048547
489,스타벅스 서울양평역점,서울 영등포구 양평동1가 247 영등포중흥S클래스 상가 1층,37.523319,126.8862498
490,스타벅스 종로구청,서울 종로구 삼봉로 71,37.5728678,126.9810892
491,스타벅스 봉은사역점,서울 강남구 봉은사로 619,37.5149998,127.0631169
492,스타벅스 W-mall점,서울 금천구 디지털로 188 B1,37.4773244,126.8877548
493,스타벅스 여의도한양증권점,서울 영등포구 국제금융로6길 7 한양증권빌딩 1층,37.5223727,126.9291144
494,스타벅스 목동행복한점,서울 양천구 목동동로 309,37.5291722,126.8759793
495,스타벅스 대한극장점,"서울 중구 퇴계로 212 1,2층",37.56103,126.9953279
496,스타벅스 드림마크원점,서울 구로구 디지털로31길 61 드림마크원데이터센터 1층,37.4857331,126.8917419
497,스타벅스 목동5단지점,서울 양천구 목동동로 411 부영그린타운3차 116호,37.5367034,126.8821186
498,스타벅스 명동남산점,서울 중구 퇴계로 132,37.5607046,126.9864471
499,스타벅스 여의도일신점,서울 영등포구 은행로 11,37.5278712,126.9202202
